[
{"type":"header","version":"4.9.5deb2","comment":"Export to JSON plugin for PHPMyAdmin"},
{"type":"database","name":"tarbus-server"},
{"type":"table","name":"AlertHistory","database":"tarbus-server","data":
[

]
}
,{"type":"table","name":"BusLine","database":"tarbus-server","data":
[
{"bl_id":"1","bl_name":"T10"},
{"bl_id":"2","bl_name":"T03"},
{"bl_id":"3","bl_name":"T08"},
{"bl_id":"4","bl_name":"T22"},
{"bl_id":"5","bl_name":"T25"},
{"bl_id":"6","bl_name":"T27"},
{"bl_id":"7","bl_name":"T29"},
{"bl_id":"8","bl_name":"T13"},
{"bl_id":"9","bl_name":"T24"},
{"bl_id":"10","bl_name":"T39"},
{"bl_id":"11","bl_name":"LG06"}
]
}
,{"type":"table","name":"BusStop","database":"tarbus-server","data":
[
{"bs_id":"1","bs_search_name":"tarnow,lwowska10-rzedzin","bs_name":"Tarnów, Lwowska 10 - Rzędzin","bs_lng":"21.02294","bs_lat":"50.01299","bs_destinations":"Mościce, Os.Koszyckie p.Os.Kolejowe","bs_destinations_old":"Mościce, Os.Koszyckie p.Os.Kolejowe"},
{"bs_id":"2","bs_search_name":"tarnow,lwowska08-kosciol","bs_name":"Tarnów, Lwowska 08 - Kościół","bs_lng":"21.00825","bs_lat":"50.0143","bs_destinations":"Mościce, Szkotnik","bs_destinations_old":"Mościce, Szkotnik"},
{"bs_id":"3","bs_search_name":"tarnow,lwowska06-jasna","bs_name":"Tarnów, Lwowska 06 - Jasna","bs_lng":"21.00353","bs_lat":"50.01466","bs_destinations":"Mościce, Szkotnik","bs_destinations_old":"Mościce, Szkotnik"},
{"bs_id":"4","bs_search_name":"tarnow,lwowska04-krupnicza","bs_name":"Tarnów, Lwowska 04 - Krupnicza","bs_lng":"20.99827","bs_lat":"50.01398","bs_destinations":"Mościce, Szkotnik","bs_destinations_old":"Mościce, Szkotnik"},
{"bs_id":"5","bs_search_name":"tarnow,lwowska02-goslara","bs_name":"Tarnów, Lwowska 02 - Goslara","bs_lng":"20.9948","bs_lat":"50.01348","bs_destinations":"Park Wodny, Kochanowskiego Chyszowska","bs_destinations_old":"Park Wodny, Kochanowskiego Chyszowska"},
{"bs_id":"6","bs_search_name":"tarnow,lwowska01-szeroka","bs_name":"Tarnów, Lwowska 01 - Szeroka","bs_lng":"20.99164","bs_lat":"50.01284","bs_destinations":"Szpital Św. Łukasza, Jasna II","bs_destinations_old":"Szpital Św. Łukasza, Jasna II"},
{"bs_id":"8","bs_search_name":"tarnow,bema02-targowa","bs_name":"Tarnów, Bema 02 - Targowa","bs_lng":"20.98796","bs_lat":"50.01117","bs_destinations":"Szpital Św. Łukasza, Jasna II","bs_destinations_old":"Szpital Św. Łukasza, Jasna II"},
{"bs_id":"10","bs_search_name":"tarnow,bema04-szkola","bs_name":"Tarnów, Bema 04 - Szkoła","bs_lng":"20.98141","bs_lat":"50.00952","bs_destinations":"Szpital Św. Łukasza, Jasna II","bs_destinations_old":"Szpital Św. Łukasza, Jasna II"},
{"bs_id":"11","bs_search_name":"tarnow,sikorskiego01-swit","bs_name":"Tarnów, Sikorskiego 01 - Świt","bs_lng":"20.97707","bs_lat":"50.00943","bs_destinations":"Park Wodny, Jana Pawła II","bs_destinations_old":"Park Wodny, Jana Pawła II"},
{"bs_id":"12","bs_search_name":"tarnow,krakowska03-pl.popieluszki","bs_name":"Tarnów, Krakowska 03 - Pl. Popiełuszki","bs_lng":"20.97583","bs_lat":"50.00835","bs_destinations":"Mościce, Kochanowskiego Chyszowska","bs_destinations_old":"Mościce, Kochanowskiego Chyszowska"},
{"bs_id":"13","bs_search_name":"tarnow,krakowska05-slusarska","bs_name":"Tarnów, Krakowska 05 - Ślusarska","bs_lng":"20.96681","bs_lat":"50.00427","bs_destinations":"Mościce, Os.Koszyckie p.Os.Kolejowe","bs_destinations_old":"Mościce, Os.Koszyckie p.Os.Kolejowe"},
{"bs_id":"14","bs_search_name":"tarnow,krakowska07-warsztatowa","bs_name":"Tarnów, Krakowska 07 - Warsztatowa","bs_lng":"20.96174","bs_lat":"50.00204","bs_destinations":"Mościce, Os.Koszyckie p.Os.Kolejowe","bs_destinations_old":"Mościce, Os.Koszyckie p.Os.Kolejowe"},
{"bs_id":"15","bs_search_name":"tarnow,krakowska09-bracizmudow","bs_name":"Tarnów, Krakowska 09 - Braci Żmudów","bs_lng":"20.9546","bs_lat":"49.99887","bs_destinations":"Mościce, Os.Koszyckie p.Os.Kolejowe","bs_destinations_old":"Mościce, Os.Koszyckie p.Os.Kolejowe"},
{"bs_id":"16","bs_search_name":"tarnow,czerwona01-krakowska","bs_name":"Tarnów, Czerwona 01 - Krakowska","bs_lng":"20.94706","bs_lat":"49.99661","bs_destinations":"Mościce","bs_destinations_old":"Mościce"},
{"bs_id":"17","bs_search_name":"tarnow,krakowska12-hubala","bs_name":"Tarnów, Krakowska 12 - Hubala","bs_lng":"20.93966","bs_lat":"49.99314","bs_destinations":"Szkotnik","bs_destinations_old":"Szkotnik"},
{"bs_id":"19","bs_search_name":"zbylitowskagora-ul.krakowska-spacerowa67","bs_name":"Zbylitowska Góra - ul. Krakowska-Spacerowa 67","bs_lng":"20.92262","bs_lat":"49.98622","bs_destinations":"Zbylitowska Góra Szkoła, Błonie obok Zajazdu","bs_destinations_old":"Zbylitowska Góra Szkoła, Błonie obok Zajazdu"},
{"bs_id":"20","bs_search_name":"zbylitowskagora-ul.krakowska-cichociemnych65","bs_name":"Zbylitowska Góra - ul. Krakowska-Cichociemnych 65","bs_lng":"20.91507","bs_lat":"49.98322","bs_destinations":"Zbylitowska Góra Szkoła, Błonie obok Zajazdu","bs_destinations_old":"Zbylitowska Góra Szkoła, Błonie obok Zajazdu"},
{"bs_id":"21","bs_search_name":"zglobice-ul.krakowska-zbylitowskich63","bs_name":"Zgłobice - ul. Krakowska - Zbylitowskich 63","bs_lng":"20.90589","bs_lat":"49.97917","bs_destinations":"Zbylitowska Góra Szkoła, Błonie obok Zajazdu","bs_destinations_old":"Zbylitowska Góra Szkoła, Błonie obok Zajazdu"},
{"bs_id":"25","bs_search_name":"tarnow,moscickiego01-szkotnik","bs_name":"Tarnów, Mościckiego 01 - Szkotnik","bs_lng":"20.97478","bs_lat":"50.01128","bs_destinations":"Park Wodny, Mościce","bs_destinations_old":"Park Wodny, Mościce"},
{"bs_id":"26","bs_search_name":"tarnow,moscickiego03-osiedle","bs_name":"Tarnów, Mościckiego 03 - Osiedle","bs_lng":"20.96644","bs_lat":"50.01243","bs_destinations":"Park Wodny, Mościce","bs_destinations_old":"Park Wodny, Mościce"},
{"bs_id":"27","bs_search_name":"tarnow,moscickiego06-piekarnia","bs_name":"Tarnów, Mościckiego 06 - Piekarnia","bs_lng":"20.9632","bs_lat":"50.01349","bs_destinations":"Jana Pawła II, Jasna II","bs_destinations_old":"Jana Pawła II, Jasna II"},
{"bs_id":"28","bs_search_name":"tarnow,moscickiego05-hodowlana","bs_name":"Tarnów, Mościckiego 05 - Hodowlana","bs_lng":"20.95675","bs_lat":"50.01503","bs_destinations":"Mościce, Os.Zbylitowska Góra","bs_destinations_old":"Mościce, Os.Zbylitowska Góra"},
{"bs_id":"29","bs_search_name":"tarnow,moscickiego07-szkola","bs_name":"Tarnów, Mościckiego 07 - Szkoła","bs_lng":"20.95098","bs_lat":"50.01641","bs_destinations":"Mościce, Os.Zbylitowska Góra","bs_destinations_old":"Mościce, Os.Zbylitowska Góra"},
{"bs_id":"30","bs_search_name":"tarnow,moscickiego09-czysta","bs_name":"Tarnów, Mościckiego 09 - Czysta","bs_lng":"20.94048","bs_lat":"50.01809","bs_destinations":"Mościce, Os.Zbylitowska Góra","bs_destinations_old":"Mościce, Os.Zbylitowska Góra"},
{"bs_id":"31","bs_search_name":"tarnow,kwiatkowskiego01-grupaazoty","bs_name":"Tarnów, Kwiatkowskiego 01 - Grupa Azoty","bs_lng":"20.92759","bs_lat":"50.01554","bs_destinations":"Mościce, Os.Zbylitowska Góra","bs_destinations_old":"Mościce, Os.Zbylitowska Góra"},
{"bs_id":"34","bs_search_name":"tarnow,chemiczna05-dunajcowa","bs_name":"Tarnów, Chemiczna 05 - Dunajcowa","bs_lng":"20.91283","bs_lat":"50.01742","bs_destinations":"Kapro","bs_destinations_old":"Kapro"},
{"bs_id":"35","bs_search_name":"tarnow,chemiczna07-ec","bs_name":"Tarnów, Chemiczna 07 - EC","bs_lng":"20.9128","bs_lat":"50.02363","bs_destinations":"Kapro","bs_destinations_old":"Kapro"},
{"bs_id":"36","bs_search_name":"tarnow,kapro01","bs_name":"Tarnów, Kapro 01","bs_lng":"20.91451","bs_lat":"50.02675","bs_destinations":"Jana Pawła II, Szpital Św. Łukasza","bs_destinations_old":"Jana Pawła II, Szpital Św. Łukasza"},
{"bs_id":"37","bs_search_name":"tarnow,sloneczna08-janapawlaii","bs_name":"Tarnów, Słoneczna 08 - Jana Pawła II","bs_lng":"21.00946","bs_lat":"50.01662","bs_destinations":"Mościce, Kochanowskiego Chyszowska","bs_destinations_old":"Mościce, Kochanowskiego Chyszowska"},
{"bs_id":"38","bs_search_name":"tarnow,klikowska03-slowackiego","bs_name":"Tarnów, Klikowska 03 - Słowackiego","bs_lng":"20.97504","bs_lat":"50.01936","bs_destinations":"Park Wodny, Biała","bs_destinations_old":"Park Wodny, Biała"},
{"bs_id":"39","bs_search_name":"tarnow,klikowska05-straz","bs_name":"Tarnów, Klikowska 05 - Straż","bs_lng":"20.97218","bs_lat":"50.02263","bs_destinations":"Park Wodny, Biała","bs_destinations_old":"Park Wodny, Biała"},
{"bs_id":"40","bs_search_name":"tarnow,klikowska07-elektryczna","bs_name":"Tarnów, Klikowska 07 - Elektryczna","bs_lng":"20.96707","bs_lat":"50.02892","bs_destinations":"Biała","bs_destinations_old":"Biała"},
{"bs_id":"42","bs_search_name":"tarnow,elektryczna02-tamel","bs_name":"Tarnów, Elektryczna 02 - Tamel","bs_lng":"20.97281","bs_lat":"50.03322","bs_destinations":"Kryształowa HSG p.Fritar, Szpital Św. Łukasza","bs_destinations_old":"Kryształowa HSG p.Fritar, Szpital Św. Łukasza"},
{"bs_id":"43","bs_search_name":"tarnow,klikowska11-stokrotek","bs_name":"Tarnów, Klikowska 11 - Stokrotek","bs_lng":"20.96075","bs_lat":"50.03568","bs_destinations":"Biała","bs_destinations_old":"Biała"},
{"bs_id":"44","bs_search_name":"tarnow,klikowska13-szczawiowa","bs_name":"Tarnów, Klikowska 13 - Szczawiowa","bs_lng":"20.95447","bs_lat":"50.03727","bs_destinations":"Biała","bs_destinations_old":"Biała"},
{"bs_id":"45","bs_search_name":"tarnow,klikowska13-szczawiowa","bs_name":"Tarnów, Klikowska 13 - Szczawiowa","bs_lng":"20.95447","bs_lat":"50.03727","bs_destinations":"","bs_destinations_old":""},
{"bs_id":"46","bs_search_name":"tarnow,klikowska15-spoldzielnia","bs_name":"Tarnów, Klikowska 15 - Spółdzielnia","bs_lng":"20.94876","bs_lat":"50.03898","bs_destinations":"Biała","bs_destinations_old":"Biała"},
{"bs_id":"47","bs_search_name":"tarnow,klikowska17-stadninakoni","bs_name":"Tarnów, Klikowska 17 - Stadnina Koni","bs_lng":"20.94114","bs_lat":"50.04281","bs_destinations":"Biała","bs_destinations_old":"Biała"},
{"bs_id":"48","bs_search_name":"tarnow,wojskapolskiego02-osiedle","bs_name":"Tarnów, Wojska Polskiego 02 - Osiedle","bs_lng":"21.00149","bs_lat":"50.02111","bs_destinations":"Park Wodny, Biała","bs_destinations_old":"Park Wodny, Biała"},
{"bs_id":"51","bs_search_name":"gumniska-dabrowskiego","bs_name":"Gumniska- Dąbrowskiego","bs_lng":"0","bs_lat":"0","bs_destinations":"","bs_destinations_old":""},
{"bs_id":"52","bs_search_name":"tarnow,gumniska02-kosciol","bs_name":"Tarnów, Gumniska 02 - Kościół","bs_lng":"20.99927","bs_lat":"50.00854","bs_destinations":"Mościce","bs_destinations_old":"Mościce"},
{"bs_id":"53","bs_search_name":"tarnow,bracisakow01-park","bs_name":"Tarnów, Braci Saków 01 - Park","bs_lng":"21.00738","bs_lat":"50.00744","bs_destinations":"Jana Pawła II","bs_destinations_old":"Jana Pawła II"},
{"bs_id":"60","bs_search_name":"koszycemale-ul.wolska-klub22","bs_name":"Koszyce Małe - ul. Wolska - Klub 22","bs_lng":"20.92444","bs_lat":"49.96241","bs_destinations":"W. Ostrębowska p. Zgłobice","bs_destinations_old":"W. Ostrębowska p. Zgłobice"},
{"bs_id":"65","bs_search_name":"tarnow,matkibozejfatimskiej03-kosciol","bs_name":"Tarnów, Matki Bożej Fatimskiej 03 - Kościół","bs_lng":"20.99337","bs_lat":"50.01946","bs_destinations":"W. Ostrębowska p. Zgłobice, Wiśniowa","bs_destinations_old":"W. Ostrębowska p. Zgłobice, Wiśniowa"},
{"bs_id":"66","bs_search_name":"tarnow,matkibozejfatimskiej05-szpitalna","bs_name":"Tarnów, Matki Bożej Fatimskiej 05 - Szpitalna","bs_lng":"20.99604","bs_lat":"50.02525","bs_destinations":"Wiśniowa, Łukowa p.Kolonię","bs_destinations_old":"Wiśniowa, Łukowa p.Kolonię"},
{"bs_id":"67","bs_search_name":"tarnow,nowodabrowska05-blonie","bs_name":"Tarnów, Nowodąbrowska 05 - Błonie","bs_lng":"21.00296","bs_lat":"50.03609","bs_destinations":"Wiśniowa","bs_destinations_old":"Wiśniowa"},
{"bs_id":"68","bs_search_name":"tarnow,nowodabrowska07-dymszy","bs_name":"Tarnów, Nowodąbrowska 07 - Dymszy","bs_lng":"21.00318","bs_lat":"50.04212","bs_destinations":"Wiśniowa","bs_destinations_old":"Wiśniowa"},
{"bs_id":"69","bs_search_name":"tarnow,nowodabrowska07-dymszy","bs_name":"Tarnów, Nowodąbrowska 07 - Dymszy","bs_lng":"21.00318","bs_lat":"50.04212","bs_destinations":"","bs_destinations_old":""},
{"bs_id":"70","bs_search_name":"tarnow,nowodabrowska13-sarnia","bs_name":"Tarnów, Nowodąbrowska 13 - Sarnia","bs_lng":"21.00705","bs_lat":"50.05031","bs_destinations":"Wiśniowa","bs_destinations_old":"Wiśniowa"},
{"bs_id":"71","bs_search_name":"brzozowkakolokapliczki","bs_name":"Brzozówka koło Kapliczki","bs_lng":"21.01269","bs_lat":"50.06029","bs_destinations":"Wiśniowa","bs_destinations_old":"Wiśniowa"},
{"bs_id":"72","bs_search_name":"brzozowkaorg47","bs_name":"Brzozówka org 47","bs_lng":"21.01579","bs_lat":"50.06587","bs_destinations":"Lisia Góra","bs_destinations_old":"Lisia Góra"},
{"bs_id":"73","bs_search_name":"lisiagora","bs_name":"LISIA GÓRA","bs_lng":"0","bs_lat":"0","bs_destinations":"","bs_destinations_old":""},
{"bs_id":"77","bs_search_name":"tarnow,krzyska01-fatimskiej","bs_name":"Tarnów, Krzyska 01 - Fatimskiej","bs_lng":"20.99596","bs_lat":"50.0273","bs_destinations":"Wiśniowa, Łukowa p.Kolonię","bs_destinations_old":"Wiśniowa, Łukowa p.Kolonię"},
{"bs_id":"78","bs_search_name":"tarnow,szkotnik01-plac","bs_name":"Tarnów, Szkotnik 01 - Plac","bs_lng":"20.97633","bs_lat":"50.01238","bs_destinations":"Jana Pawła II, Wałki Jodłówka","bs_destinations_old":"Jana Pawła II, Wałki Jodłówka"},
{"bs_id":"79","bs_search_name":"tarnow,krzyska03-cmentarzi","bs_name":"Tarnów, Krzyska 03 - Cmentarz I","bs_lng":"20.99515","bs_lat":"50.03298","bs_destinations":"Wiśniowa, Łukowa p.Kolonię","bs_destinations_old":"Wiśniowa, Łukowa p.Kolonię"},
{"bs_id":"80","bs_search_name":"tarnow,krzyska05-cmentarzii","bs_name":"Tarnów, Krzyska 05 - Cmentarz II","bs_lng":"20.99341","bs_lat":"50.03646","bs_destinations":"Wiśniowa, Łukowa p.Kolonię","bs_destinations_old":"Wiśniowa, Łukowa p.Kolonię"},
{"bs_id":"81","bs_search_name":"tarnow,krzyska07-dutkiewicza","bs_name":"Tarnów, Krzyska 07 - Dutkiewicza","bs_lng":"20.9917","bs_lat":"50.04089","bs_destinations":"Wiśniowa, Łukowa p.Kolonię","bs_destinations_old":"Wiśniowa, Łukowa p.Kolonię"},
{"bs_id":"82","bs_search_name":"tarnow,krzyska09-szkola","bs_name":"Tarnów, Krzyska 09 - Szkoła","bs_lng":"20.99269","bs_lat":"50.04462","bs_destinations":"Wiśniowa, Łukowa p.Kolonię","bs_destinations_old":"Wiśniowa, Łukowa p.Kolonię"},
{"bs_id":"84","bs_search_name":"tarnow,narutowicza03-cmentarz","bs_name":"Tarnów, Narutowicza 03 - Cmentarz","bs_lng":"20.98852","bs_lat":"50.00871","bs_destinations":"Góra Św.Marcina, Piotrkowice","bs_destinations_old":"Góra Św.Marcina, Piotrkowice"},
{"bs_id":"85","bs_search_name":"tarnow,tuchowska01-halatuchowska","bs_name":"Tarnów, Tuchowska 01 - Hala Tuchowska","bs_lng":"20.98623","bs_lat":"49.99824","bs_destinations":"Piotrkowice, Kłokowa","bs_destinations_old":"Piotrkowice, Kłokowa"},
{"bs_id":"86","bs_search_name":"tarnowiec-granica02","bs_name":"Tarnowiec - Granica 02","bs_lng":"20.98523","bs_lat":"49.98796","bs_destinations":"Piotrkowice, Kłokowa","bs_destinations_old":"Piotrkowice, Kłokowa"},
{"bs_id":"87","bs_search_name":"tarnowiec-pom04","bs_name":"Tarnowiec - POM 04","bs_lng":"20.98506","bs_lat":"49.98514","bs_destinations":"Piotrkowice, Kłokowa","bs_destinations_old":"Piotrkowice, Kłokowa"},
{"bs_id":"89","bs_search_name":"tarnowiec-zimnawoda08","bs_name":"Tarnowiec - Zimna Woda 08","bs_lng":"20.98861","bs_lat":"49.97677","bs_destinations":"Piotrkowice, Kłokowa","bs_destinations_old":"Piotrkowice, Kłokowa"},
{"bs_id":"90","bs_search_name":"nowodworze10","bs_name":"Nowodworze 10","bs_lng":"20.99223","bs_lat":"49.97088","bs_destinations":"Piotrkowice","bs_destinations_old":"Piotrkowice"},
{"bs_id":"93","bs_search_name":"porebaradlna-kosciol14","bs_name":"Poręba Radlna - Kościół 14","bs_lng":"20.99056","bs_lat":"49.96156","bs_destinations":"Piotrkowice","bs_destinations_old":"Piotrkowice"},
{"bs_id":"94","bs_search_name":"tarnow,czerwona03-daleka","bs_name":"Tarnów, Czerwona 03 - Daleka","bs_lng":"20.94026","bs_lat":"49.99865","bs_destinations":"Mościce","bs_destinations_old":"Mościce"},
{"bs_id":"95","bs_search_name":"tarnow,czerwona05-brzozowa","bs_name":"Tarnów, Czerwona 05 - Brzozowa","bs_lng":"20.93506","bs_lat":"49.99975","bs_destinations":"Mościce","bs_destinations_old":"Mościce"},
{"bs_id":"96","bs_search_name":"tarnow,czerwona07-powstancowstyczniowych","bs_name":"Tarnów, Czerwona 07 - Powstańców Styczniowych","bs_lng":"20.9285","bs_lat":"50.00388","bs_destinations":"Mościce","bs_destinations_old":"Mościce"},
{"bs_id":"97","bs_search_name":"tarnow,czerwonychklonow02-traugutta","bs_name":"Tarnów, Czerwonych Klonów 02 - Traugutta","bs_lng":"20.92584","bs_lat":"50.00931","bs_destinations":"Mościce","bs_destinations_old":"Mościce"},
{"bs_id":"98","bs_search_name":"tarnow,wladyslawawarnenczyka02-os.koszyckie","bs_name":"Tarnów, Władysława Warneńczyka 02 - Os. Koszyckie","bs_lng":"20.95462","bs_lat":"49.98958","bs_destinations":"Szp.Św.Łukasza p.Os.Kolejowe","bs_destinations_old":"Szp.Św.Łukasza p.Os.Kolejowe"},
{"bs_id":"99","bs_search_name":"jodlowka-walki-centrum30","bs_name":"Jodłówka - Wałki - Centrum 30","bs_lng":"21.14132","bs_lat":"50.05212","bs_destinations":"Wałki Jodłówka","bs_destinations_old":"Wałki Jodłówka"},
{"bs_id":"100","bs_search_name":"walkii","bs_name":"WAŁKI I","bs_lng":"0","bs_lat":"0","bs_destinations":"","bs_destinations_old":""},
{"bs_id":"101","bs_search_name":"wolarzedzinska-kuznia22","bs_name":"Wola Rzędzińska - Kuźnia 22","bs_lng":"21.11599","bs_lat":"50.04749","bs_destinations":"Wałki Jodłówka","bs_destinations_old":"Wałki Jodłówka"},
{"bs_id":"103","bs_search_name":"wolarzedzinska-ochronka18","bs_name":"Wola Rzędzińska - Ochronka 18","bs_lng":"21.09952","bs_lat":"50.04515","bs_destinations":"Wałki Jodłówka","bs_destinations_old":"Wałki Jodłówka"},
{"bs_id":"104","bs_search_name":"wolarzedzinska-mrozowka14","bs_name":"Wola Rzędzińska - Mrozówka 14","bs_lng":"21.08715","bs_lat":"50.04055","bs_destinations":"Wałki Jodłówka","bs_destinations_old":"Wałki Jodłówka"},
{"bs_id":"105","bs_search_name":"wolarzedzinska-drogadozaczarnia10","bs_name":"Wola Rzędzińska - Droga do Zaczarnia 10","bs_lng":"21.07193","bs_lat":"50.03974","bs_destinations":"Wałki Jodłówka","bs_destinations_old":"Wałki Jodłówka"},
{"bs_id":"106","bs_search_name":"wolarzedzinska-kosciol08","bs_name":"Wola Rzędzińska - Kościół 08","bs_lng":"21.06468","bs_lat":"50.03749","bs_destinations":"Wałki Jodłówka, Góra Św.Marcina obok Kościoła","bs_destinations_old":"Wałki Jodłówka, Góra Św.Marcina obok Kościoła"},
{"bs_id":"107","bs_search_name":"wolarzedzinska-boisko06","bs_name":"Wola Rzędzińska - Boisko 06","bs_lng":"21.05321","bs_lat":"50.03287","bs_destinations":"Wałki Jodłówka","bs_destinations_old":"Wałki Jodłówka"},
{"bs_id":"108","bs_search_name":"wolarzedzinska-zlewnia04","bs_name":"Wola Rzędzińska - Zlewnia 04","bs_lng":"21.04531","bs_lat":"50.02866","bs_destinations":"Wałki Jodłówka","bs_destinations_old":"Wałki Jodłówka"},
{"bs_id":"109","bs_search_name":"tarnow,orkana07-granicamiasta","bs_name":"Tarnów, Orkana 07 - Granica miasta","bs_lng":"21.03356","bs_lat":"50.02207","bs_destinations":"Jodłówka","bs_destinations_old":"Wałki Jodłówka, Wola Rzędzińska"},
{"bs_id":"110","bs_search_name":"tarnow,orkana03-remiza","bs_name":"Tarnów, Orkana 03 - Remiza","bs_lng":"21.02174","bs_lat":"50.01707","bs_destinations":"Jodłówka","bs_destinations_old":"Wałki Jodłówka, Wola Rzędzińska"},
{"bs_id":"112","bs_search_name":"tarnow,orkana01-szkola","bs_name":"Tarnów, Orkana 01 - Szkoła","bs_lng":"21.015","bs_lat":"50.01496","bs_destinations":"Jodłówka","bs_destinations_old":"Wałki Jodłówka, Wola Rzędzińska"},
{"bs_id":"113","bs_search_name":"tarnow,petlajasnaii01","bs_name":"Tarnów, Pętla Jasna  II 01","bs_lng":"21.00609","bs_lat":"50.0284","bs_destinations":"Park Wodny, Biała","bs_destinations_old":"Park Wodny, Biała"},
{"bs_id":"121","bs_search_name":"tarnow,wojskapolskiego03-osjasnaii","bs_name":"Tarnów, Wojska Polskiego 03 - Os Jasna  II","bs_lng":"21.00499","bs_lat":"50.02367","bs_destinations":"Jasna II, Szp.Św.Łukasza p.Os.Kolejowe","bs_destinations_old":"Jasna II, Szp.Św.Łukasza p.Os.Kolejowe"},
{"bs_id":"137","bs_search_name":"koszycewielkie-ul.tarnowska-maczka02","bs_name":"Koszyce Wielkie - ul. Tarnowska - Maczka 02","bs_lng":"20.94904","bs_lat":"49.99075","bs_destinations":"Os.Koszyckie p.Os.Kolejowe, W. Ostrębowska p. Zgłobice","bs_destinations_old":"Os.Koszyckie p.Os.Kolejowe, W. Ostrębowska p. Zgłobice"},
{"bs_id":"138","bs_search_name":"koszycewielkie-ul.tarnowska-kosciol04","bs_name":"Koszyce Wielkie - ul. Tarnowska - Kościół 04","bs_lng":"20.94848","bs_lat":"49.98554","bs_destinations":"W. Ostrębowska p. Zgłobice, W. Ostrębowska","bs_destinations_old":"W. Ostrębowska p. Zgłobice, W. Ostrębowska"},
{"bs_id":"139","bs_search_name":"koszycewielkie-ul.tarnowska-kedronia06","bs_name":"Koszyce Wielkie - ul. Tarnowska - Kędronia 06","bs_lng":"20.94578","bs_lat":"49.98046","bs_destinations":"W. Ostrębowska p. Zgłobice, W. Ostrębowska","bs_destinations_old":"W. Ostrębowska p. Zgłobice, W. Ostrębowska"},
{"bs_id":"141","bs_search_name":"koszycemale-ul.glowna-remiza10","bs_name":"Koszyce Małe - ul. Główna - Remiza 10","bs_lng":"20.9466","bs_lat":"49.96917","bs_destinations":"W. Ostrębowska, Rychwałd","bs_destinations_old":"W. Ostrębowska, Rychwałd"},
{"bs_id":"143","bs_search_name":"koszycemale-ul.wolska-glowna01","bs_name":"Koszyce Małe - ul. Wolska - Główna 01","bs_lng":"20.94049","bs_lat":"49.9615","bs_destinations":"","bs_destinations_old":""},
{"bs_id":"146","bs_search_name":"tarnow,szpitalsw.lukasza01","bs_name":"Tarnów, Szpital Św. Łukasza 01","bs_lng":"21.03113","bs_lat":"50.01265","bs_destinations":"Mościce, Os.Koszyckie p.Os.Kolejowe","bs_destinations_old":"Mościce, Os.Koszyckie p.Os.Kolejowe"},
{"bs_id":"147","bs_search_name":"tarnow,starodabrowska02-lwowska","bs_name":"Tarnów, Starodąbrowska 02 - Lwowska","bs_lng":"20.99578","bs_lat":"50.01443","bs_destinations":"Jodłówka","bs_destinations_old":"Wałki Jodłówka"},
{"bs_id":"149","bs_search_name":"tarnow,mickiewicza04-poczta","bs_name":"Tarnów, Mickiewicza 04 - Poczta","bs_lng":"20.98923","bs_lat":"50.01544","bs_destinations":"Mościce, Biała","bs_destinations_old":"Mościce, Biała"},
{"bs_id":"151","bs_search_name":"tarnow,solidarnosci02-seminarium","bs_name":"Tarnów, Solidarności 02 - Seminarium","bs_lng":"20.98503","bs_lat":"50.01547","bs_destinations":"Jodłówka","bs_destinations_old":"Jana Pawła II, Jasna II"},
{"bs_id":"152","bs_search_name":"tarnow,solidarnosci01-klikowska","bs_name":"Tarnów, Solidarności 01 - Klikowska","bs_lng":"20.97992","bs_lat":"50.01569","bs_destinations":"Mościce, Biała","bs_destinations_old":"Mościce, Biała"},
{"bs_id":"153","bs_search_name":"tarnow,narutowicza04-lazienna","bs_name":"Tarnów, Narutowicza 04 - Łazienna","bs_lng":"20.98654","bs_lat":"50.00858","bs_destinations":"Park Wodny, Mościce","bs_destinations_old":"Park Wodny, Mościce"},
{"bs_id":"154","bs_search_name":"tarnow,kochanowskiego01-konopnickiej","bs_name":"Tarnów, Kochanowskiego 01 - Konopnickiej","bs_lng":"20.96434","bs_lat":"50.00604","bs_destinations":"Kochanowskiego Chyszowska, SAG","bs_destinations_old":"Kochanowskiego Chyszowska, SAG"},
{"bs_id":"155","bs_search_name":"tarnow,kochanowskiego03-chyszowska","bs_name":"Tarnów, Kochanowskiego 03 - Chyszowska","bs_lng":"20.95934","bs_lat":"50.00694","bs_destinations":"Kochanowskiego Chyszowska, SAG","bs_destinations_old":"Kochanowskiego Chyszowska, SAG"},
{"bs_id":"159","bs_search_name":"tarnow,krysztalowa04-petla","bs_name":"Tarnów, Kryształowa 04 - Pętla","bs_lng":"20.97503","bs_lat":"50.03915","bs_destinations":"Pułaskiego","bs_destinations_old":"Pułaskiego"},
{"bs_id":"162","bs_search_name":"tarnow,krzyska11-falata","bs_name":"Tarnów, Krzyska 11 - Fałata","bs_lng":"20.992","bs_lat":"50.04821","bs_destinations":"Wiśniowa, Łukowa p.Kolonię","bs_destinations_old":"Wiśniowa, Łukowa p.Kolonię"},
{"bs_id":"163","bs_search_name":"tarnow,krzyska13-bukowa","bs_name":"Tarnów, Krzyska 13 - Bukowa","bs_lng":"20.99111","bs_lat":"50.05192","bs_destinations":"Wiśniowa, Łukowa p.Kolonię","bs_destinations_old":"Wiśniowa, Łukowa p.Kolonię"},
{"bs_id":"164","bs_search_name":"tarnow,krzyska15-boisko","bs_name":"Tarnów, Krzyska 15 - Boisko","bs_lng":"20.98923","bs_lat":"50.05593","bs_destinations":"Wiśniowa, Łukowa p.Kolonię","bs_destinations_old":"Wiśniowa, Łukowa p.Kolonię"},
{"bs_id":"165","bs_search_name":"pawezow-wiadukta401","bs_name":"Pawęzów - Wiadukt A4 01","bs_lng":"20.98742","bs_lat":"50.0626","bs_destinations":"","bs_destinations_old":""},
{"bs_id":"168","bs_search_name":"tarnow,starodabrowska04-szpital","bs_name":"Tarnów, Starodąbrowska 04 - Szpital","bs_lng":"20.99579","bs_lat":"50.01622","bs_destinations":"Park Wodny, Kochanowskiego Chyszowska","bs_destinations_old":"Park Wodny, Kochanowskiego Chyszowska"},
{"bs_id":"176","bs_search_name":"tarnow,marszalka02","bs_name":"Tarnów, Marszałka 02","bs_lng":"20.99257","bs_lat":"50.02013","bs_destinations":"W. Ostrębowska p. Zgłobice, W. Ostrębowska","bs_destinations_old":"W. Ostrębowska p. Zgłobice, W. Ostrębowska"},
{"bs_id":"198","bs_search_name":"glowackiego-pulaskiego","bs_name":"Głowackiego-Pułaskiego","bs_lng":"0","bs_lat":"0","bs_destinations":"","bs_destinations_old":""},
{"bs_id":"209","bs_search_name":"zglobice-ul.zglobicka-sloneczna14","bs_name":"Zgłobice - ul. Zgłobicka - Słoneczna 14","bs_lng":"20.90585","bs_lat":"49.97275","bs_destinations":"W. Ostrębowska p. Zgłobice, Błonie obok Zajazdu","bs_destinations_old":"W. Ostrębowska p. Zgłobice, Błonie obok Zajazdu"},
{"bs_id":"211","bs_search_name":"blonie-naftobudowa04","bs_name":"Błonie - Naftobudowa 04","bs_lng":"20.89984","bs_lat":"49.96598","bs_destinations":"Błonie obok Zajazdu","bs_destinations_old":"Błonie obok Zajazdu"},
{"bs_id":"213","bs_search_name":"porebaradlna-szkola16","bs_name":"Poręba Radlna - Szkoła 16","bs_lng":"20.99379","bs_lat":"49.95861","bs_destinations":"Piotrkowice","bs_destinations_old":"Piotrkowice"},
{"bs_id":"214","bs_search_name":"porebaradlna-petla129","bs_name":"Poręba Radlna - Pętla 129","bs_lng":"21.00577","bs_lat":"49.95515","bs_destinations":"Piotrkowice","bs_destinations_old":"Piotrkowice"},
{"bs_id":"215","bs_search_name":"porebaradlna18","bs_name":"Poręba Radlna 18","bs_lng":"21.00058","bs_lat":"49.95651","bs_destinations":"Piotrkowice","bs_destinations_old":"Piotrkowice"},
{"bs_id":"229","bs_search_name":"tarnow,klikowska19-klikowai","bs_name":"Tarnów, Klikowska 19 - Klikowa I","bs_lng":"20.9357","bs_lat":"50.04274","bs_destinations":"Biała","bs_destinations_old":"Biała"},
{"bs_id":"230","bs_search_name":"tarnow,klikowska21-granicamiasta","bs_name":"Tarnów, Klikowska 21 - Granica miasta","bs_lng":"20.93061","bs_lat":"50.04115","bs_destinations":"Biała","bs_destinations_old":"Biała"},
{"bs_id":"231","bs_search_name":"biala-centrum05","bs_name":"Biała - Centrum 05","bs_lng":"20.91773","bs_lat":"50.043","bs_destinations":"Jasna II","bs_destinations_old":"Jasna II"},
{"bs_id":"232","bs_search_name":"tarnow,pulaskiego01-osiedle","bs_name":"Tarnów, Pułaskiego 01 - Osiedle","bs_lng":"20.97347","bs_lat":"50.01338","bs_destinations":"Kryształowa HSG p.Fritar","bs_destinations_old":"Kryształowa HSG p.Fritar"},
{"bs_id":"240","bs_search_name":"tarnow,gorasw.marcina01","bs_name":"Tarnów, Góra Św. Marcina 01","bs_lng":"21.00029","bs_lat":"49.99397","bs_destinations":"Jana Pawła II, Mościce","bs_destinations_old":"Jana Pawła II, Mościce"},
{"bs_id":"241","bs_search_name":"tarnowskich-tuwima","bs_name":"Tarnowskich - Tuwima","bs_lng":"0","bs_lat":"0","bs_destinations":"","bs_destinations_old":""},
{"bs_id":"243","bs_search_name":"tarnow,czarnadroga08-zbylitowska","bs_name":"Tarnów, Czarna Droga 08 - Zbylitowska","bs_lng":"20.91152","bs_lat":"50.00132","bs_destinations":"Mościce","bs_destinations_old":"Mościce"},
{"bs_id":"244","bs_search_name":"tarnow,czarnadroga06-cmentarz","bs_name":"Tarnów, Czarna Droga 06 - Cmentarz","bs_lng":"20.92025","bs_lat":"49.9985","bs_destinations":"Os.Zbylitowska Góra","bs_destinations_old":"Os.Zbylitowska Góra"},
{"bs_id":"245","bs_search_name":"tarnow,czarnadroga04-domseniora","bs_name":"Tarnów, Czarna Droga 04 - Dom Seniora","bs_lng":"20.93064","bs_lat":"49.99719","bs_destinations":"Szkotnik p.Armii Krajowej","bs_destinations_old":"Szkotnik p.Armii Krajowej"},
{"bs_id":"246","bs_search_name":"tarnow,szujskiego07-chyszowska","bs_name":"Tarnów, Szujskiego 07 - Chyszowska","bs_lng":"20.96233","bs_lat":"50.01447","bs_destinations":"Mościce, Os.Zbylitowska Góra","bs_destinations_old":"Mościce, Os.Zbylitowska Góra"},
{"bs_id":"247","bs_search_name":"tarnow,szujskiego03-rolnicza","bs_name":"Tarnów, Szujskiego 03 - Rolnicza","bs_lng":"20.97001","bs_lat":"50.01476","bs_destinations":"Mościce, Jasna II","bs_destinations_old":"Mościce, Jasna II"},
{"bs_id":"251","bs_search_name":"pawezow-szkola05","bs_name":"Pawęzów - Szkoła 05","bs_lng":"20.98583","bs_lat":"50.06998","bs_destinations":"Łukowa p.Kolonię","bs_destinations_old":"Łukowa p.Kolonię"},
{"bs_id":"253","bs_search_name":"smigno02","bs_name":"Śmigno 02","bs_lng":"20.98708","bs_lat":"50.07822","bs_destinations":"Łukowa p.Kolonię","bs_destinations_old":"Łukowa p.Kolonię"},
{"bs_id":"254","bs_search_name":"radlna-przedszkole06","bs_name":"Radlna - Przedszkole 06","bs_lng":"20.97549","bs_lat":"49.96384","bs_destinations":"Kłokowa, Łękawka p.Zawadę-Radlną","bs_destinations_old":"Kłokowa, Łękawka p.Zawadę-Radlną"},
{"bs_id":"255","bs_search_name":"radlna-budynekwielofunkcyjny08","bs_name":"Radlna - Budynek Wielofunkcyjny 08","bs_lng":"20.97364","bs_lat":"49.96194","bs_destinations":"Kłokowa, Łękawka p.Zawadę-Radlną","bs_destinations_old":"Kłokowa, Łękawka p.Zawadę-Radlną"},
{"bs_id":"256","bs_search_name":"blonie-szkola08","bs_name":"Błonie - Szkoła 08","bs_lng":"20.90138","bs_lat":"49.95607","bs_destinations":"Błonie obok Zajazdu","bs_destinations_old":"Błonie obok Zajazdu"},
{"bs_id":"257","bs_search_name":"tarnow,mieszkai02-koszycka","bs_name":"Tarnów, Mieszka I 02 - Koszycka","bs_lng":"20.94887","bs_lat":"49.99277","bs_destinations":"Szp.Św.Łukasza p.Os.Kolejowe","bs_destinations_old":"Szp.Św.Łukasza p.Os.Kolejowe"},
{"bs_id":"258","bs_search_name":"swiebodzin-kosciol10","bs_name":"Świebodzin - Kościół 10","bs_lng":"20.96366","bs_lat":"49.95754","bs_destinations":"Kłokowa","bs_destinations_old":"Kłokowa"},
{"bs_id":"259","bs_search_name":"swiebodzin-klokowapkp01","bs_name":"Świebodzin - Kłokowa PKP 01","bs_lng":"20.95731","bs_lat":"49.95306","bs_destinations":"Kłokowa","bs_destinations_old":"Kłokowa"},
{"bs_id":"264","bs_search_name":"zbylitowskagora-cmentarz15","bs_name":"Zbylitowska Góra - Cmentarz 15","bs_lng":"20.90329","bs_lat":"49.98243","bs_destinations":"Zbylitowska Góra Szkoła, Błonie p.Zb.Górę","bs_destinations_old":"Zbylitowska Góra Szkoła, Błonie p.Zb.Górę"},
{"bs_id":"265","bs_search_name":"zbylitowskagora-buczyna06","bs_name":"Zbylitowska Góra - Buczyna 06","bs_lng":"20.90263","bs_lat":"49.98583","bs_destinations":"Szkotnik, Błonie p.Zb.Górę","bs_destinations_old":"Szkotnik, Błonie p.Zb.Górę"},
{"bs_id":"266","bs_search_name":"zbylitowskagora-szkola19","bs_name":"Zbylitowska Góra - Szkoła 19","bs_lng":"20.90221","bs_lat":"49.99006","bs_destinations":"Zbylitowska Góra Szkoła","bs_destinations_old":"Zbylitowska Góra Szkoła"},
{"bs_id":"281","bs_search_name":"zglobice-staradroga","bs_name":"ZGŁOBICE-STARA DROGA","bs_lng":"0","bs_lat":"0","bs_destinations":"","bs_destinations_old":""},
{"bs_id":"287","bs_search_name":"tarnow,nowodabrowska01-os.legionow","bs_name":"Tarnów, Nowodąbrowska 01 - Os. Legionów","bs_lng":"20.99851","bs_lat":"50.02838","bs_destinations":"Wiśniowa, Mościce","bs_destinations_old":"Wiśniowa, Mościce"},
{"bs_id":"288","bs_search_name":"tarnow,blonie01-nowodabrowska","bs_name":"Tarnów, Błonie 01 - Nowodąbrowska","bs_lng":"21.00369","bs_lat":"50.03548","bs_destinations":"Szp.Św.Łukasza p.Os.Kolejowe, Kochanowskiego Chyszowska","bs_destinations_old":"Szp.Św.Łukasza p.Os.Kolejowe, Kochanowskiego Chyszowska"},
{"bs_id":"289","bs_search_name":"tarnow,janapawlaii07-rondoreagana","bs_name":"Tarnów, Jana Pawła II 07 - Rondo Reagana","bs_lng":"21.01333","bs_lat":"50.02697","bs_destinations":"Jana Pawła II, Jasna Gemini","bs_destinations_old":"Jana Pawła II, Jasna Gemini"},
{"bs_id":"292","bs_search_name":"lisiagora(l121+863)","bs_name":"Lisia Góra (L 121+863)","bs_lng":"21.02546","bs_lat":"50.08309","bs_destinations":"","bs_destinations_old":""},
{"bs_id":"293","bs_search_name":"tarnow,okrezna03-bracisakow","bs_name":"Tarnów, Okrężna 03 - Braci Saków","bs_lng":"21.01254","bs_lat":"50.00753","bs_destinations":"Mościce","bs_destinations_old":"Mościce"},
{"bs_id":"294","bs_search_name":"tarnow,okrezna01-mpk","bs_name":"Tarnów, Okrężna 01 - MPK","bs_lng":"21.02065","bs_lat":"50.01263","bs_destinations":"Mościce","bs_destinations_old":"Mościce"},
{"bs_id":"295","bs_search_name":"tarnow,janapawlaii08-blonie","bs_name":"Tarnów, Jana Pawła II 08 - Błonie","bs_lng":"21.01224","bs_lat":"50.03387","bs_destinations":"Szp.Św.Łukasza p.Os.Kolejowe, Kochanowskiego Chyszowska","bs_destinations_old":"Szp.Św.Łukasza p.Os.Kolejowe, Kochanowskiego Chyszowska"},
{"bs_id":"312","bs_search_name":"wolarzedzinska-domstrazaka20","bs_name":"Wola Rzędzińska - Dom Strażaka 20","bs_lng":"21.10742","bs_lat":"50.0464","bs_destinations":"Wałki Jodłówka","bs_destinations_old":"Wałki Jodłówka"},
{"bs_id":"313","bs_search_name":"tarnow,starodabrowska05-wojskapolskiego","bs_name":"Tarnów, Starodąbrowska 05 - Wojska Polskiego","bs_lng":"20.99761","bs_lat":"50.02198","bs_destinations":"Jana Pawła II, Szp.Św.Łukasza p.Os.Kolejowe","bs_destinations_old":"Jana Pawła II, Szp.Św.Łukasza p.Os.Kolejowe"},
{"bs_id":"314","bs_search_name":"smigno-petla04","bs_name":"Śmigno - Pętla 04","bs_lng":"20.99761","bs_lat":"50.08012","bs_destinations":"Łukowa p.Kolonię","bs_destinations_old":"Łukowa p.Kolonię"},
{"bs_id":"315","bs_search_name":"smigno-nagorze06","bs_name":"Śmigno - Na Górze 06","bs_lng":"21.00591","bs_lat":"50.08157","bs_destinations":"Lisia Góra obok szkoły","bs_destinations_old":"Lisia Góra obok szkoły"},
{"bs_id":"317","bs_search_name":"zbylitowskagora-ujeciewody21","bs_name":"Zbylitowska Góra - Ujęcie Wody 21","bs_lng":"20.90364","bs_lat":"49.99498","bs_destinations":"Mościce","bs_destinations_old":"Mościce"},
{"bs_id":"332","bs_search_name":"tarnow,sloneczna02-kosciol","bs_name":"Tarnów, Słoneczna 02 - Kościół","bs_lng":"20.99406","bs_lat":"50.01854","bs_destinations":"","bs_destinations_old":""},
{"bs_id":"334","bs_search_name":"tarnow,sloneczna04-bitwyowalpomorski","bs_name":"Tarnów, Słoneczna 04 - Bitwy o Wał Pomorski","bs_lng":"20.99927","bs_lat":"50.01803","bs_destinations":"Mościce, Kochanowskiego Chyszowska","bs_destinations_old":"Mościce, Kochanowskiego Chyszowska"},
{"bs_id":"335","bs_search_name":"tarnow,sloneczna06-jasna","bs_name":"Tarnów, Słoneczna 06 - Jasna","bs_lng":"21.00557","bs_lat":"50.01733","bs_destinations":"Mościce, Kochanowskiego Chyszowska","bs_destinations_old":"Mościce, Kochanowskiego Chyszowska"},
{"bs_id":"337","bs_search_name":"jodlowka-walki-petla01","bs_name":"Jodłówka - Wałki - Petla 01","bs_lng":"21.15791","bs_lat":"50.05949","bs_destinations":"Wałki Jodłówka p.Szpic","bs_destinations_old":"Wałki Jodłówka p.Szpic"},
{"bs_id":"338","bs_search_name":"jodlowka-walki-szkola02","bs_name":"Jodłówka - Wałki - SZKOŁA`02","bs_lng":"21.14134","bs_lat":"50.05496","bs_destinations":"Wałki Jodłówka","bs_destinations_old":"Wałki Jodłówka"},
{"bs_id":"339","bs_search_name":"tarnow,janapawlaii02-os.zielone","bs_name":"Tarnów, Jana Pawła II 02 - Os. Zielone","bs_lng":"21.01186","bs_lat":"50.02178","bs_destinations":"Mościce, Kochanowskiego Chyszowska","bs_destinations_old":"Mościce, Kochanowskiego Chyszowska"},
{"bs_id":"340","bs_search_name":"tarnow,janapawlaii06-os.westerplatte","bs_name":"Tarnów, Jana Pawła II 06-Os.Westerplatte","bs_lng":"21.0128","bs_lat":"50.02938","bs_destinations":"Jana Pawła II, Jana Pawła II p.Ablewicza","bs_destinations_old":"Jana Pawła II, Jana Pawła II p.Ablewicza"},
{"bs_id":"341","bs_search_name":"tarnow,sloneczna07-lwowska","bs_name":"Tarnów, Słoneczna 07 - Lwowska","bs_lng":"21.01162","bs_lat":"50.01519","bs_destinations":"Mościce, Szp.Św.Łukasza p.Os.Kolejowe","bs_destinations_old":"Mościce, Szp.Św.Łukasza p.Os.Kolejowe"},
{"bs_id":"344","bs_search_name":"lekawka(skrzyzowanie)22","bs_name":"Łękawka (skrzyżowanie) 22","bs_lng":"21.0156","bs_lat":"49.94452","bs_destinations":"Piotrkowice","bs_destinations_old":"Piotrkowice"},
{"bs_id":"345","bs_search_name":"lekawka-petla24a","bs_name":"Łękawka - Pętla 24A","bs_lng":"21.01347","bs_lat":"49.93438","bs_destinations":"","bs_destinations_old":""},
{"bs_id":"346","bs_search_name":"radlna-nagorach04","bs_name":"Radlna - Na Górach 04","bs_lng":"20.9817","bs_lat":"49.96517","bs_destinations":"Kłokowa, Łękawka p.Zawadę-Radlną","bs_destinations_old":"Kłokowa, Łękawka p.Zawadę-Radlną"},
{"bs_id":"347","bs_search_name":"koszycewielkie-ul.kedronia-remiza02","bs_name":"Koszyce Wielkie - ul. Kędronia - Remiza 02","bs_lng":"20.94137","bs_lat":"49.9802","bs_destinations":"W. Ostrębowska p. Zgłobice","bs_destinations_old":"W. Ostrębowska p. Zgłobice"},
{"bs_id":"348","bs_search_name":"koszycewielkie-ul.kedronia-sklep04","bs_name":"Koszyce Wielkie - ul. Kędronia - Sklep 04","bs_lng":"20.93471","bs_lat":"49.98038","bs_destinations":"W. Ostrębowska p. Zgłobice","bs_destinations_old":"W. Ostrębowska p. Zgłobice"},
{"bs_id":"349","bs_search_name":"koszycewielkie-ul.stachury-brzezinki06","bs_name":"Koszyce Wielkie - ul. Stachury - Brzezinki 06","bs_lng":"20.92807","bs_lat":"49.9781","bs_destinations":"W. Ostrębowska p. Zgłobice","bs_destinations_old":"W. Ostrębowska p. Zgłobice"},
{"bs_id":"350","bs_search_name":"zglobice-ul.topolowa-mila08","bs_name":"Zgłobice - ul. Topolowa - Miła 08","bs_lng":"20.91661","bs_lat":"49.97563","bs_destinations":"W. Ostrębowska p. Zgłobice","bs_destinations_old":"W. Ostrębowska p. Zgłobice"},
{"bs_id":"351","bs_search_name":"zglobice-ul.topolowa-skr12","bs_name":"Zgłobice - ul. Topolowa - SKR 12","bs_lng":"20.90635","bs_lat":"49.97463","bs_destinations":"W. Ostrębowska p. Zgłobice","bs_destinations_old":"W. Ostrębowska p. Zgłobice"},
{"bs_id":"352","bs_search_name":"koszycemale-ul.wolska-jalowce18","bs_name":"Koszyce Małe - ul. Wolska - Jałowce 18","bs_lng":"20.91403","bs_lat":"49.96649","bs_destinations":"W. Ostrębowska p. Zgłobice","bs_destinations_old":"W. Ostrębowska p. Zgłobice"},
{"bs_id":"353","bs_search_name":"koszycemale-ul.wolska-deby20","bs_name":"Koszyce Małe - ul. Wolska - Dęby 20","bs_lng":"20.91813","bs_lat":"49.96434","bs_destinations":"W. Ostrębowska p. Zgłobice","bs_destinations_old":"W. Ostrębowska p. Zgłobice"},
{"bs_id":"354","bs_search_name":"koszycemale-ul.wolska24","bs_name":"Koszyce Małe - ul. Wolska 24","bs_lng":"20.93337","bs_lat":"49.96273","bs_destinations":"W. Ostrębowska p. Zgłobice","bs_destinations_old":"W. Ostrębowska p. Zgłobice"},
{"bs_id":"364","bs_search_name":"tarnow,romanowicza06-kasprowicza","bs_name":"Tarnów, Romanowicza 06 - Kasprowicza","bs_lng":"20.97905","bs_lat":"50.02279","bs_destinations":"Park Wodny, Kryształowa HSG p.Fritar","bs_destinations_old":"Park Wodny, Kryształowa HSG p.Fritar"},
{"bs_id":"366","bs_search_name":"tarnow,romanowicza02-park","bs_name":"Tarnów, Romanowicza 02 - Park","bs_lng":"20.98628","bs_lat":"50.02122","bs_destinations":"Park Wodny","bs_destinations_old":"Park Wodny"},
{"bs_id":"367","bs_search_name":"tarnow,parkwodny01","bs_name":"Tarnów, Park Wodny 01","bs_lng":"20.98901","bs_lat":"50.02377","bs_destinations":"Park Wodny","bs_destinations_old":"Park Wodny"},
{"bs_id":"368","bs_search_name":"jodlowka-walki-gorowka34","bs_name":"Jodłówka - Wałki - Górówka 34","bs_lng":"21.13924","bs_lat":"50.06038","bs_destinations":"Wałki Jodłówka","bs_destinations_old":"Wałki Jodłówka"},
{"bs_id":"369","bs_search_name":"jodlowka-walki-dol09","bs_name":"Jodłówka - Wałki - Dół 09","bs_lng":"21.13496","bs_lat":"50.06693","bs_destinations":"Wałki Jodłówka","bs_destinations_old":"Wałki Jodłówka"},
{"bs_id":"371","bs_search_name":"lekawka-kosciol30","bs_name":"Łękawka - Kościół 30","bs_lng":"21.02989","bs_lat":"49.94725","bs_destinations":"Piotrkowice p.Łękawkę","bs_destinations_old":"Piotrkowice p.Łękawkę"},
{"bs_id":"372","bs_search_name":"zawada-granica02","bs_name":"Zawada - Granica 02","bs_lng":"20.99987","bs_lat":"49.97915","bs_destinations":"Zawada, Pułaskiego p.Zawadę","bs_destinations_old":"Zawada, Pułaskiego p.Zawadę"},
{"bs_id":"373","bs_search_name":"zawada-babel04","bs_name":"Zawada - Bąbel 04","bs_lng":"21.01027","bs_lat":"49.98079","bs_destinations":"Zawada, Pułaskiego p.Zawadę","bs_destinations_old":"Zawada, Pułaskiego p.Zawadę"},
{"bs_id":"374","bs_search_name":"zawada-szkola06","bs_name":"Zawada - Szkoła 06","bs_lng":"21.01415","bs_lat":"49.97965","bs_destinations":"Zawada, Pułaskiego p.Zawadę","bs_destinations_old":"Zawada, Pułaskiego p.Zawadę"},
{"bs_id":"375","bs_search_name":"zawada-petla08","bs_name":"Zawada - Pętla 08","bs_lng":"21.01168","bs_lat":"49.97327","bs_destinations":"Zawada","bs_destinations_old":"Zawada"},
{"bs_id":"376","bs_search_name":"jodlowka-walki-gorowkazachodnia05","bs_name":"Jodłówka - Wałki - Górówka Zachodnia 05","bs_lng":"21.11238","bs_lat":"50.05894","bs_destinations":"Wałki Górówka p.Jodłówkę","bs_destinations_old":"Wałki Górówka p.Jodłówkę"},
{"bs_id":"377","bs_search_name":"wolarzedzinska-ferma03","bs_name":"Wola Rzędzińska - Ferma 03","bs_lng":"21.1025","bs_lat":"50.05286","bs_destinations":"Wałki Górówka","bs_destinations_old":"Wałki Górówka"},
{"bs_id":"381","bs_search_name":"blonie-granica10","bs_name":"Błonie - Granica 10","bs_lng":"20.90259","bs_lat":"49.94843","bs_destinations":"Błonie obok Zajazdu","bs_destinations_old":"Błonie obok Zajazdu"},
{"bs_id":"382","bs_search_name":"szczepanowice-zatoka26","bs_name":"Szczepanowice - Zatoka 26","bs_lng":"20.8996","bs_lat":"49.94668","bs_destinations":"Błonie obok Zajazdu","bs_destinations_old":"Błonie obok Zajazdu"},
{"bs_id":"398","bs_search_name":"tarnow,lwowska09-okrezna","bs_name":"Tarnów, Lwowska 09 - Okrężna","bs_lng":"21.02223","bs_lat":"50.01293","bs_destinations":"Szpital Św. Łukasza, Mościce","bs_destinations_old":"Szpital Św. Łukasza, Mościce"},
{"bs_id":"399","bs_search_name":"tarnow,lwowska07-burtnicza","bs_name":"Tarnów, Lwowska 07 - Burtnicza","bs_lng":"21.00729","bs_lat":"50.01426","bs_destinations":"Jodłówka","bs_destinations_old":"Szpital Św. Łukasza, Wałki Jodłówka"},
{"bs_id":"400","bs_search_name":"tarnow,lwowska05-kowalska","bs_name":"Tarnów, Lwowska 05 - Kowalska","bs_lng":"21.00286","bs_lat":"50.01437","bs_destinations":"Jodłówka","bs_destinations_old":"Szpital Św. Łukasza, Wałki Jodłówka"},
{"bs_id":"401","bs_search_name":"tarnow,lwowska03-mostowa","bs_name":"Tarnów, Lwowska 03 - Mostowa","bs_lng":"20.99891","bs_lat":"50.01385","bs_destinations":"Jodłówka","bs_destinations_old":"Szpital Św. Łukasza, Wałki Jodłówka"},
{"bs_id":"402","bs_search_name":"tarnow,konarskiego01-sad","bs_name":"Tarnów, Konarskiego 01 - Sąd","bs_lng":"20.99307","bs_lat":"50.00918","bs_destinations":"Park Wodny, Mościce","bs_destinations_old":"Park Wodny, Mościce"},
{"bs_id":"403","bs_search_name":"tarnow,krakowska01-pl.kosciuszki","bs_name":"Tarnów, Krakowska 01 - Pl. Kościuszki","bs_lng":"20.9784","bs_lat":"50.0094","bs_destinations":"Mościce, Góra Św.Marcina","bs_destinations_old":"Mościce, Góra Św.Marcina"},
{"bs_id":"404","bs_search_name":"tarnow,krakowska02-planty","bs_name":"Tarnów, Krakowska 02 - Planty","bs_lng":"20.97562","bs_lat":"50.00793","bs_destinations":"Jodłówka","bs_destinations_old":"Szpital Św. Łukasza, Jana Pawła II"},
{"bs_id":"405","bs_search_name":"tarnow,krakowska04-przemyslowa","bs_name":"Tarnów, Krakowska 04 - Przemysłowa","bs_lng":"20.96681","bs_lat":"50.0041","bs_destinations":"Szpital Św. Łukasza, Szkotnik","bs_destinations_old":"Szpital Św. Łukasza, Szkotnik"},
{"bs_id":"406","bs_search_name":"tarnow,krakowska06-zakladowa","bs_name":"Tarnów, Krakowska 06 - Zakładowa","bs_lng":"20.96203","bs_lat":"50.00198","bs_destinations":"Szpital Św. Łukasza, Szkotnik","bs_destinations_old":"Szpital Św. Łukasza, Szkotnik"},
{"bs_id":"407","bs_search_name":"tarnow,krakowska08-kapielowa","bs_name":"Tarnów, Krakowska 08 - Kąpielowa","bs_lng":"20.95598","bs_lat":"49.99928","bs_destinations":"Szpital Św. Łukasza, Szkotnik","bs_destinations_old":"Szpital Św. Łukasza, Szkotnik"},
{"bs_id":"408","bs_search_name":"tarnow,krakowska10-koszycka","bs_name":"Tarnów, Krakowska 10 - Koszycka","bs_lng":"20.94796","bs_lat":"49.99636","bs_destinations":"Szpital Św. Łukasza, Szkotnik","bs_destinations_old":"Szpital Św. Łukasza, Szkotnik"},
{"bs_id":"409","bs_search_name":"tarnow,koszycka01-krakowska","bs_name":"Tarnów, Koszycka 01 - Krakowska","bs_lng":"20.94748","bs_lat":"49.99574","bs_destinations":"Os.Koszyckie p.Os.Kolejowe, W. Ostrębowska p. Zgłobice","bs_destinations_old":"Os.Koszyckie p.Os.Kolejowe, W. Ostrębowska p. Zgłobice"},
{"bs_id":"410","bs_search_name":"tarnow,krakowska11-czerwona","bs_name":"Tarnów, Krakowska 11 - Czerwona","bs_lng":"20.94643","bs_lat":"49.99602","bs_destinations":"Zbylitowska Góra Szkoła, Błonie obok Zajazdu","bs_destinations_old":"Zbylitowska Góra Szkoła, Błonie obok Zajazdu"},
{"bs_id":"412","bs_search_name":"tarnow,krakowska94","bs_name":"Tarnów, Krakowska 94","bs_lng":"20.92482","bs_lat":"49.98685","bs_destinations":"Szkotnik","bs_destinations_old":"Szkotnik"},
{"bs_id":"413","bs_search_name":"zbylitowskagora-ul.krakowska-cichociemnych64","bs_name":"Zbylitowska Góra - ul. Krakowska-Cichociemnych 64","bs_lng":"20.91514","bs_lat":"49.98256","bs_destinations":"Szkotnik","bs_destinations_old":"Szkotnik"},
{"bs_id":"414","bs_search_name":"zglobice-ul.krakowska-salonvw62","bs_name":"Zgłobice - ul. Krakowska - Salon VW 62","bs_lng":"20.90792","bs_lat":"49.9798","bs_destinations":"Szkotnik","bs_destinations_old":"Szkotnik"},
{"bs_id":"415","bs_search_name":"zglobice-ul.zglobicka-odr13","bs_name":"Zgłobice - ul. Zgłobicka - ODR 13","bs_lng":"20.90343","bs_lat":"49.97678","bs_destinations":"Szkotnik","bs_destinations_old":"Szkotnik"},
{"bs_id":"416","bs_search_name":"zglobice-ul.zglobicka-odr12","bs_name":"Zgłobice - ul. Zgłobicka - ODR 12","bs_lng":"20.90338","bs_lat":"49.97659","bs_destinations":"W. Ostrębowska p. Zgłobice, Błonie obok Zajazdu","bs_destinations_old":"W. Ostrębowska p. Zgłobice, Błonie obok Zajazdu"},
{"bs_id":"418","bs_search_name":"tarnow,moscickiego02-pulaskiego","bs_name":"Tarnów, Mościckiego 02 - Pułaskiego","bs_lng":"20.97262","bs_lat":"50.01127","bs_destinations":"Jana Pawła II, Jasna II","bs_destinations_old":"Jana Pawła II, Jasna II"},
{"bs_id":"419","bs_search_name":"tarnow,moscickiego04-wiejska","bs_name":"Tarnów, Mościckiego 04 - Wiejska","bs_lng":"20.96733","bs_lat":"50.01205","bs_destinations":"Jana Pawła II, Jasna II","bs_destinations_old":"Jana Pawła II, Jasna II"},
{"bs_id":"420","bs_search_name":"tarnow,moscickiego08-kresowa","bs_name":"Tarnów, Mościckiego 08 - Kresowa","bs_lng":"20.95765","bs_lat":"50.01483","bs_destinations":"Jana Pawła II, Góra Św. Marcina","bs_destinations_old":"Jana Pawła II, Góra Św. Marcina"},
{"bs_id":"421","bs_search_name":"tarnow,moscickiego10-gruntowa","bs_name":"Tarnów, Mościckiego 10 - Gruntowa","bs_lng":"20.94939","bs_lat":"50.01676","bs_destinations":"Jana Pawła II, Góra Św. Marcina","bs_destinations_old":"Jana Pawła II, Góra Św. Marcina"},
{"bs_id":"422","bs_search_name":"tarnow,moscickiego12-wody","bs_name":"Tarnów, Mościckiego 12 - Wody","bs_lng":"20.94065","bs_lat":"50.018","bs_destinations":"Jana Pawła II, Jasna II","bs_destinations_old":"Jana Pawła II, Jasna II"},
{"bs_id":"423","bs_search_name":"tarnow,kwiatkowskiego02-dzialki","bs_name":"Tarnów, Kwiatkowskiego 02 - Działki","bs_lng":"20.93045","bs_lat":"50.01604","bs_destinations":"Jana Pawła II, Jasna II","bs_destinations_old":"Jana Pawła II, Jasna II"},
{"bs_id":"427","bs_search_name":"tarnow,krakowska13-czarnadroga","bs_name":"Tarnów, Krakowska 13 - Czarna Droga","bs_lng":"20.93887","bs_lat":"49.9929","bs_destinations":"Zbylitowska Góra Szkoła, Błonie obok Zajazdu","bs_destinations_old":"Zbylitowska Góra Szkoła, Błonie obok Zajazdu"},
{"bs_id":"428","bs_search_name":"tarnow,chemiczna03-kwiatkowskiego","bs_name":"Tarnów, Chemiczna 03 - Kwiatkowskiego","bs_lng":"20.91449","bs_lat":"50.01398","bs_destinations":"","bs_destinations_old":""},
{"bs_id":"429","bs_search_name":"chemiczna-witosa","bs_name":"Chemiczna-Witosa","bs_lng":"20.9144","bs_lat":"50.01397","bs_destinations":"","bs_destinations_old":""},
{"bs_id":"432","bs_search_name":"tarnow,chemiczna06-dunajcowa","bs_name":"Tarnów, Chemiczna 06 - Dunajcowa","bs_lng":"20.91272","bs_lat":"50.01759","bs_destinations":"Jana Pawła II, Szpital Św. Łukasza","bs_destinations_old":"Jana Pawła II, Szpital Św. Łukasza"},
{"bs_id":"433","bs_search_name":"tarnow,chemiczna08-ec","bs_name":"Tarnów, Chemiczna 08 - EC","bs_lng":"20.91275","bs_lat":"50.02405","bs_destinations":"Jana Pawła II, Szpital Św. Łukasza","bs_destinations_old":"Jana Pawła II, Szpital Św. Łukasza"},
{"bs_id":"434","bs_search_name":"tarnow,janapawlaii01-sloneczna","bs_name":"Tarnów, Jana Pawła II 01 - Słoneczna","bs_lng":"21.01112","bs_lat":"50.01714","bs_destinations":"Jana Pawła II, Jasna Gemini","bs_destinations_old":"Jana Pawła II, Jasna Gemini"},
{"bs_id":"435","bs_search_name":"tarnow,klikowska02-pulaskiego","bs_name":"Tarnów, Klikowska 02 - Pułaskiego","bs_lng":"20.9749","bs_lat":"50.01936","bs_destinations":"Jasna II, Pułaskiego","bs_destinations_old":"Jasna II, Pułaskiego"},
{"bs_id":"436","bs_search_name":"tarnow,klikowska04-rolnicza","bs_name":"Tarnów, Klikowska 04 - Rolnicza","bs_lng":"20.97239","bs_lat":"50.02227","bs_destinations":"Jasna II, Pułaskiego","bs_destinations_old":"Jasna II, Pułaskiego"},
{"bs_id":"437","bs_search_name":"tarnow,klikowska06-wyszynskiego","bs_name":"Tarnów, Klikowska 06 - Wyszyńskiego","bs_lng":"20.96686","bs_lat":"50.02898","bs_destinations":"Jasna II, Szpital Św. Łukasza","bs_destinations_old":"Jasna II, Szpital Św. Łukasza"},
{"bs_id":"438","bs_search_name":"tarnow,klikowska09-ziolowa","bs_name":"Tarnów, Klikowska 09 - Ziołowa","bs_lng":"20.96374","bs_lat":"50.03269","bs_destinations":"Biała, Kryształowa HSG p.Fritar","bs_destinations_old":"Biała, Kryształowa HSG p.Fritar"},
{"bs_id":"439","bs_search_name":"tarnow,klikowska08-zagumnie","bs_name":"Tarnów, Klikowska 08 - Zagumnie","bs_lng":"20.96429","bs_lat":"50.03202","bs_destinations":"Jasna II, Pułaskiego","bs_destinations_old":"Jasna II, Pułaskiego"},
{"bs_id":"440","bs_search_name":"tarnow,klikowska10-golebia","bs_name":"Tarnów, Klikowska 10 - Gołębia","bs_lng":"20.96125","bs_lat":"50.03546","bs_destinations":"Jasna II, Pułaskiego","bs_destinations_old":"Jasna II, Pułaskiego"},
{"bs_id":"441","bs_search_name":"tarnow,klikowska12-niedomicka","bs_name":"Tarnów, Klikowska 12 - Niedomicka","bs_lng":"20.95564","bs_lat":"50.03699","bs_destinations":"Jasna II","bs_destinations_old":"Jasna II"},
{"bs_id":"442","bs_search_name":"tarnow,niedomicka02-szkola","bs_name":"Tarnów, Niedomicka 02 - Szkoła","bs_lng":"20.95594","bs_lat":"50.03899","bs_destinations":"Pułaskiego","bs_destinations_old":"Pułaskiego"},
{"bs_id":"443","bs_search_name":"tarnow,niedomicka01-mrozna","bs_name":"Tarnów, Niedomicka 01 - Mroźna","bs_lng":"20.95559","bs_lat":"50.03992","bs_destinations":"","bs_destinations_old":""},
{"bs_id":"444","bs_search_name":"tarnow,klikowska14-spoldzielnia","bs_name":"Tarnów, Klikowska 14 - Spółdzielnia","bs_lng":"20.94868","bs_lat":"50.03896","bs_destinations":"Jasna II","bs_destinations_old":"Jasna II"},
{"bs_id":"445","bs_search_name":"tarnow,klikowska16-konna","bs_name":"Tarnów, Klikowska 16 - Konna","bs_lng":"20.94122","bs_lat":"50.04265","bs_destinations":"Jasna II","bs_destinations_old":"Jasna II"},
{"bs_id":"446","bs_search_name":"tarnow,wojskapolskiego01-osiedle","bs_name":"Tarnów, Wojska Polskiego 01 - Osiedle","bs_lng":"21.00291","bs_lat":"50.02112","bs_destinations":"Jasna II, Szp.Św.Łukasza p.Os.Kolejowe","bs_destinations_old":"Jasna II, Szp.Św.Łukasza p.Os.Kolejowe"},
{"bs_id":"447","bs_search_name":"tarnow,starodabrowska06-cmentarz","bs_name":"Tarnów, Starodąbrowska 06 - Cmentarz","bs_lng":"20.99697","bs_lat":"50.02052","bs_destinations":"Park Wodny, Biała","bs_destinations_old":"Park Wodny, Biała"},
{"bs_id":"448","bs_search_name":"tarnow,starodabrowska03-sloneczna","bs_name":"Tarnów, Starodąbrowska 03 - Słoneczna","bs_lng":"20.99669","bs_lat":"50.01896","bs_destinations":"Jasna II, Jana Pawła II","bs_destinations_old":"Jasna II, Jana Pawła II"},
{"bs_id":"449","bs_search_name":"tarnow,gumniska01-sad","bs_name":"Tarnów, Gumniska 01 - Sąd","bs_lng":"20.99581","bs_lat":"50.00893","bs_destinations":"Jana Pawła II","bs_destinations_old":"Jana Pawła II"},
{"bs_id":"450","bs_search_name":"tarnow,gumniska03-krogulskiego","bs_name":"Tarnów, Gumniska 03 - Krogulskiego","bs_lng":"20.99994","bs_lat":"50.00831","bs_destinations":"Jana Pawła II","bs_destinations_old":"Jana Pawła II"},
{"bs_id":"451","bs_search_name":"tarnow,bracisakow02-park","bs_name":"Tarnów, Braci Saków 02 - Park","bs_lng":"21.00842","bs_lat":"50.00735","bs_destinations":"Mościce","bs_destinations_old":"Mościce"},
{"bs_id":"463","bs_search_name":"tarnow,matkibozejfatimskiej04-marszalka","bs_name":"Tarnów, Matki Bożej Fatimskiej 04 - Marszałka","bs_lng":"20.99349","bs_lat":"50.02034","bs_destinations":"Wiśniowa, Łukowa p.Kolonię","bs_destinations_old":"Wiśniowa, Łukowa p.Kolonię"},
{"bs_id":"464","bs_search_name":"tarnow,matkibozejfatimskiej06-krzyska","bs_name":"Tarnów, Matki Bożej Fatimskiej 06 - Krzyska","bs_lng":"20.99559","bs_lat":"50.02473","bs_destinations":"Wiśniowa, Łukowa p.Kolonię","bs_destinations_old":"Wiśniowa, Łukowa p.Kolonię"},
{"bs_id":"465","bs_search_name":"tarnow,nowodabrowska04-spokojna","bs_name":"Tarnów, Nowodąbrowska 04 - Spokojna","bs_lng":"21.00195","bs_lat":"50.03524","bs_destinations":"Os.Koszyckie p.Os.Kolejowe, Wiśniowa","bs_destinations_old":"Os.Koszyckie p.Os.Kolejowe, Wiśniowa"},
{"bs_id":"466","bs_search_name":"tarnow,nowodabrowska06-jaracza","bs_name":"Tarnów, Nowodąbrowska 06 - Jaracza","bs_lng":"21.00301","bs_lat":"50.04081","bs_destinations":"Wiśniowa","bs_destinations_old":"Wiśniowa"},
{"bs_id":"467","bs_search_name":"tarnow,nowodabrowska09-pankiewicza","bs_name":"Tarnów, Nowodąbrowska 09 - Pankiewicza","bs_lng":"21.00442","bs_lat":"50.04556","bs_destinations":"Wiśniowa","bs_destinations_old":"Wiśniowa"},
{"bs_id":"468","bs_search_name":"tarnow,nowodabrowska08-szuszkiewicza","bs_name":"Tarnów, Nowodąbrowska 08 - Szuszkiewicza","bs_lng":"21.00451","bs_lat":"50.04593","bs_destinations":"Wiśniowa","bs_destinations_old":"Wiśniowa"},
{"bs_id":"469","bs_search_name":"tarnow,nowodabrowska12-swierkowa","bs_name":"Tarnów, Nowodąbrowska 12 - Świerkowa","bs_lng":"21.00678","bs_lat":"50.04997","bs_destinations":"Wiśniowa","bs_destinations_old":"Wiśniowa"},
{"bs_id":"470","bs_search_name":"nowodabrowska-granicamiasta","bs_name":"Nowodąbrowska-Granica miasta","bs_lng":"21.01127","bs_lat":"50.06032","bs_destinations":"","bs_destinations_old":""},
{"bs_id":"471","bs_search_name":"brzozowkaorg46","bs_name":"Brzozówka org 46","bs_lng":"21.01588","bs_lat":"50.0662","bs_destinations":"Lisia Góra","bs_destinations_old":"Lisia Góra"},
{"bs_id":"473","bs_search_name":"lisiagora-bar","bs_name":"LISIA GÓRA- BAR","bs_lng":"0","bs_lat":"0","bs_destinations":"","bs_destinations_old":""},
{"bs_id":"478","bs_search_name":"tarnow,krzyska02-fatimskiej","bs_name":"Tarnów, Krzyska 02 - Fatimskiej","bs_lng":"20.99549","bs_lat":"50.02811","bs_destinations":"Wiśniowa, Łukowa p.Kolonię","bs_destinations_old":"Wiśniowa, Łukowa p.Kolonię"},
{"bs_id":"484","bs_search_name":"tarnow,kapro01","bs_name":"Tarnów, Kapro 01","bs_lng":"20.91453","bs_lat":"50.02678","bs_destinations":"Kapro","bs_destinations_old":"Kapro"},
{"bs_id":"485","bs_search_name":"tarnow,elektryczna02-tamel","bs_name":"Tarnów, Elektryczna 02 - Tamel","bs_lng":"20.97281","bs_lat":"50.03322","bs_destinations":"","bs_destinations_old":""},
{"bs_id":"486","bs_search_name":"koszycemale-ul.wolska-klub05","bs_name":"Koszyce Małe - ul. Wolska - Klub 05","bs_lng":"20.9242","bs_lat":"49.96249","bs_destinations":"W. Ostrębowska","bs_destinations_old":"W. Ostrębowska"},
{"bs_id":"487","bs_search_name":"tarnow,szkotnik01-plac","bs_name":"Tarnów, Szkotnik 01 - Plac","bs_lng":"20.9764","bs_lat":"50.01186","bs_destinations":"Szkotnik, Wiśniowa","bs_destinations_old":"Szkotnik, Wiśniowa"},
{"bs_id":"488","bs_search_name":"tarnow,krzyska04-cmentarzi","bs_name":"Tarnów, Krzyska 04 - Cmentarz I","bs_lng":"20.99502","bs_lat":"50.03256","bs_destinations":"Wiśniowa, Łukowa p.Kolonię","bs_destinations_old":"Wiśniowa, Łukowa p.Kolonię"},
{"bs_id":"489","bs_search_name":"tarnow,krzyska06-cmentarzii","bs_name":"Tarnów, Krzyska 06 - Cmentarz II","bs_lng":"20.99392","bs_lat":"50.03532","bs_destinations":"Wiśniowa, Łukowa p.Kolonię","bs_destinations_old":"Wiśniowa, Łukowa p.Kolonię"},
{"bs_id":"490","bs_search_name":"tarnow,krzyska08-olchowa","bs_name":"Tarnów, Krzyska 08 - Olchowa","bs_lng":"20.99183","bs_lat":"50.03988","bs_destinations":"Wiśniowa, Łukowa p.Kolonię","bs_destinations_old":"Wiśniowa, Łukowa p.Kolonię"},
{"bs_id":"491","bs_search_name":"tarnow,krzyska10-szkola","bs_name":"Tarnów, Krzyska 10 - Szkoła","bs_lng":"20.99255","bs_lat":"50.04386","bs_destinations":"Wiśniowa, Łukowa p.Kolonię","bs_destinations_old":"Wiśniowa, Łukowa p.Kolonię"},
{"bs_id":"493","bs_search_name":"tarnow,tuchowska02-cmentarz","bs_name":"Tarnów, Tuchowska 02 - Cmentarz","bs_lng":"20.9896","bs_lat":"50.00826","bs_destinations":"Jana Pawła II, Piotrkowice","bs_destinations_old":"Jana Pawła II, Piotrkowice"},
{"bs_id":"494","bs_search_name":"tarnow,tuchowska04-halatuchowska","bs_name":"Tarnów, Tuchowska 04 - Hala Tuchowska","bs_lng":"20.98623","bs_lat":"49.99765","bs_destinations":"Piotrkowice, Pułaskiego p.Zawadę","bs_destinations_old":"Piotrkowice, Pułaskiego p.Zawadę"},
{"bs_id":"495","bs_search_name":"tarnow,tuchowska06-granicamiasta","bs_name":"Tarnów, Tuchowska 06 - Granica miasta","bs_lng":"20.98542","bs_lat":"49.98887","bs_destinations":"Piotrkowice, Pułaskiego p.Zawadę","bs_destinations_old":"Piotrkowice, Pułaskiego p.Zawadę"},
{"bs_id":"496","bs_search_name":"tarnowiec-kosciol144","bs_name":"Tarnowiec - Kościół 144","bs_lng":"20.98531","bs_lat":"49.98599","bs_destinations":"Piotrkowice, Pułaskiego p.Zawadę","bs_destinations_old":"Piotrkowice, Pułaskiego p.Zawadę"},
{"bs_id":"497","bs_search_name":"tarnowiec06","bs_name":"Tarnowiec 06","bs_lng":"20.98624","bs_lat":"49.98163","bs_destinations":"Piotrkowice, Kłokowa","bs_destinations_old":"Piotrkowice, Kłokowa"},
{"bs_id":"498","bs_search_name":"tarnowiec143","bs_name":"Tarnowiec 143","bs_lng":"20.98703","bs_lat":"49.98046","bs_destinations":"Piotrkowice, Pułaskiego p.Zawadę","bs_destinations_old":"Piotrkowice, Pułaskiego p.Zawadę"},
{"bs_id":"499","bs_search_name":"tarnowiec-ul.zawadzka-szkola07","bs_name":"Tarnowiec - ul. Zawadzka - Szkoła 07","bs_lng":"20.98821","bs_lat":"49.98134","bs_destinations":"Pułaskiego, Pułaskiego p.Zawadę","bs_destinations_old":"Pułaskiego, Pułaskiego p.Zawadę"},
{"bs_id":"500","bs_search_name":"tarnowiec-zimnawoda141","bs_name":"Tarnowiec - Zimna Woda 141","bs_lng":"20.98914","bs_lat":"49.97625","bs_destinations":"Piotrkowice, Pułaskiego p.Zawadę","bs_destinations_old":"Piotrkowice, Pułaskiego p.Zawadę"},
{"bs_id":"501","bs_search_name":"nowodworze139","bs_name":"Nowodworze 139","bs_lng":"20.99142","bs_lat":"49.97164","bs_destinations":"Piotrkowice","bs_destinations_old":"Piotrkowice"},
{"bs_id":"502","bs_search_name":"nowodworze-osrodekzdrowia02","bs_name":"Nowodworze - Ośrodek Zdrowia 02","bs_lng":"20.9915","bs_lat":"49.9703","bs_destinations":"Kłokowa, Łękawka p.Zawadę-Radlną","bs_destinations_old":"Kłokowa, Łękawka p.Zawadę-Radlną"},
{"bs_id":"503","bs_search_name":"nowodworze-osrodekzdrowia11","bs_name":"Nowodworze - Ośrodek Zdrowia 11","bs_lng":"20.99162","bs_lat":"49.97034","bs_destinations":"Pułaskiego p.Zawadę","bs_destinations_old":"Pułaskiego p.Zawadę"},
{"bs_id":"504","bs_search_name":"nowodworzeii12","bs_name":"Nowodworze II 12","bs_lng":"20.99469","bs_lat":"49.96729","bs_destinations":"Piotrkowice","bs_destinations_old":"Piotrkowice"},
{"bs_id":"505","bs_search_name":"nowodworzeii137","bs_name":"Nowodworze II 137","bs_lng":"20.99508","bs_lat":"49.96832","bs_destinations":"Piotrkowice","bs_destinations_old":"Piotrkowice"},
{"bs_id":"506","bs_search_name":"porebaradlna-kosciol135","bs_name":"Poręba Radlna - Kościół 135","bs_lng":"20.9924","bs_lat":"49.96338","bs_destinations":"Piotrkowice","bs_destinations_old":"Piotrkowice"},
{"bs_id":"507","bs_search_name":"tarnow,czerwona02-daleka","bs_name":"Tarnów, Czerwona 02 - Daleka","bs_lng":"20.93857","bs_lat":"49.99885","bs_destinations":"Szpital Św. Łukasza","bs_destinations_old":"Szpital Św. Łukasza"},
{"bs_id":"508","bs_search_name":"tarnow,czerwona04-brzozowa","bs_name":"Tarnów, Czerwona 04 - Brzozowa","bs_lng":"20.93402","bs_lat":"49.9998","bs_destinations":"Szpital Św. Łukasza","bs_destinations_old":"Szpital Św. Łukasza"},
{"bs_id":"509","bs_search_name":"tarnow,czerwona06-norwida","bs_name":"Tarnów, Czerwona 06 -  Norwida","bs_lng":"20.92787","bs_lat":"50.00396","bs_destinations":"Szpital Św. Łukasza","bs_destinations_old":"Szpital Św. Łukasza"},
{"bs_id":"510","bs_search_name":"tarnow,czerwonychklonow01-park","bs_name":"Tarnów, Czerwonych Klonów 01 - Park","bs_lng":"20.92503","bs_lat":"50.01069","bs_destinations":"Szpital Św. Łukasza, Szkotnik","bs_destinations_old":"Szpital Św. Łukasza, Szkotnik"},
{"bs_id":"511","bs_search_name":"tarnow,wladyslawawarnenczyka02-os.koszyckie","bs_name":"Tarnów, Władysława Warneńczyka 02 - Os. Koszyckie","bs_lng":"20.95462","bs_lat":"49.98958","bs_destinations":"Os.Koszyckie p.Os.Kolejowe","bs_destinations_old":"Os.Koszyckie p.Os.Kolejowe"},
{"bs_id":"512","bs_search_name":"tarnow,mieszkai04-boleslawasmialego","bs_name":"Tarnów, Mieszka I 04 - Bolesława Śmiałego","bs_lng":"20.95237","bs_lat":"49.992","bs_destinations":"Szp.Św.Łukasza p.Os.Kolejowe","bs_destinations_old":"Szp.Św.Łukasza p.Os.Kolejowe"},
{"bs_id":"513","bs_search_name":"jodlowka-walki-centrum17","bs_name":"Jodłówka - Wałki - Centrum 17","bs_lng":"21.14064","bs_lat":"50.0519","bs_destinations":"Szkotnik","bs_destinations_old":"Szkotnik"},
{"bs_id":"514","bs_search_name":"jodlowka-walki-granica21","bs_name":"Jodłówka - Wałki - Granica 21","bs_lng":"21.12638","bs_lat":"50.04877","bs_destinations":"Szkotnik","bs_destinations_old":"Szkotnik"},
{"bs_id":"515","bs_search_name":"wolarzedzinska-kuznia25","bs_name":"Wola Rzędzińska - Kuźnia 25","bs_lng":"21.11589","bs_lat":"50.04754","bs_destinations":"Szkotnik","bs_destinations_old":"Szkotnik"},
{"bs_id":"516","bs_search_name":"wolarzedzinska-sklep24","bs_name":"Wola Rzędzińska - Sklep 24","bs_lng":"21.11913","bs_lat":"50.04817","bs_destinations":"Wałki Jodłówka","bs_destinations_old":"Wałki Jodłówka"},
{"bs_id":"517","bs_search_name":"wolarzedzinska-tarel23","bs_name":"Wola Rzędzińska - Tarel 23","bs_lng":"21.11891","bs_lat":"50.04819","bs_destinations":"Szkotnik","bs_destinations_old":"Szkotnik"},
{"bs_id":"518","bs_search_name":"wolarzedzinska-ochronka29","bs_name":"Wola Rzędzińska - Ochronka 29","bs_lng":"21.09959","bs_lat":"50.04528","bs_destinations":"Szkotnik","bs_destinations_old":"Szkotnik"},
{"bs_id":"519","bs_search_name":"wolarzedzinska-mrozowka33","bs_name":"Wola Rzędzińska - Mrozówka 33","bs_lng":"21.08721","bs_lat":"50.04065","bs_destinations":"Szkotnik","bs_destinations_old":"Szkotnik"},
{"bs_id":"520","bs_search_name":"wolarzedzinska-drogadozaczarnia37","bs_name":"Wola Rzędzińska - Droga do Zaczarnia 37","bs_lng":"21.07221","bs_lat":"50.03993","bs_destinations":"Szkotnik","bs_destinations_old":"Szkotnik"},
{"bs_id":"521","bs_search_name":"wolarzedzinska-kosciol39","bs_name":"Wola Rzędzińska - Kościół 39","bs_lng":"21.06222","bs_lat":"50.03674","bs_destinations":"Szkotnik","bs_destinations_old":"Szkotnik"},
{"bs_id":"522","bs_search_name":"wolarzedzinska-boisko41","bs_name":"Wola Rzędzińska - Boisko 41","bs_lng":"21.05286","bs_lat":"50.03284","bs_destinations":"Szkotnik","bs_destinations_old":"Szkotnik"},
{"bs_id":"523","bs_search_name":"wolarzedzinska-zlewnia43","bs_name":"Wola Rzędzińska - Zlewnia 43","bs_lng":"21.04463","bs_lat":"50.02839","bs_destinations":"Szkotnik","bs_destinations_old":"Szkotnik"},
{"bs_id":"524","bs_search_name":"tarnow,orkana08-granicamiasta","bs_name":"Tarnów, Orkana 08 - Granica miasta","bs_lng":"21.03335","bs_lat":"50.02205","bs_destinations":"Szkotnik, Góra Św.Marcina","bs_destinations_old":"Szkotnik, Góra Św.Marcina"},
{"bs_id":"525","bs_search_name":"tarnow,orkana04-remiza","bs_name":"Tarnów, Orkana 04 - Remiza","bs_lng":"21.02147","bs_lat":"50.01713","bs_destinations":"Szkotnik, Góra Św.Marcina","bs_destinations_old":"Szkotnik, Góra Św.Marcina"},
{"bs_id":"526","bs_search_name":"tarnow,orkana02-szkola","bs_name":"Tarnów, Orkana 02 - Szkoła","bs_lng":"21.01475","bs_lat":"50.01496","bs_destinations":"Szkotnik, Góra Św.Marcina","bs_destinations_old":"Szkotnik, Góra Św.Marcina"},
{"bs_id":"527","bs_search_name":"tarnow,moscice-plac01","bs_name":"Tarnów, Mościce - Plac 01","bs_lng":"20.92482","bs_lat":"50.01514","bs_destinations":"Szpital Św. Łukasza","bs_destinations_old":"Szpital Św. Łukasza"},
{"bs_id":"528","bs_search_name":"tarnow,moscice-plac01","bs_name":"Tarnów, Mościce - Plac 01","bs_lng":"20.92368","bs_lat":"50.01492","bs_destinations":"Mościce","bs_destinations_old":"Mościce"},
{"bs_id":"529","bs_search_name":"tarnow,petlajasnaii01","bs_name":"Tarnów, Pętla Jasna  II 01","bs_lng":"21.0057","bs_lat":"50.0297","bs_destinations":"Jasna II","bs_destinations_old":"Jasna II"},
{"bs_id":"536","bs_search_name":"lwowska-granicamiasta","bs_name":"LWOWSKA- GRANICA MIASTA","bs_lng":"0","bs_lat":"0","bs_destinations":"","bs_destinations_old":""},
{"bs_id":"537","bs_search_name":"lwowska-granicamiasta","bs_name":"LWOWSKA-GRANICA MIASTA","bs_lng":"0","bs_lat":"0","bs_destinations":"","bs_destinations_old":""},
{"bs_id":"550","bs_search_name":"tarnow,koszycka02-chrobrego","bs_name":"Tarnów, Koszycka 02 - Chrobrego","bs_lng":"20.94906","bs_lat":"49.99101","bs_destinations":"W. Ostrębowska p. Zgłobice, W. Ostrębowska","bs_destinations_old":"W. Ostrębowska p. Zgłobice, W. Ostrębowska"},
{"bs_id":"551","bs_search_name":"koszycewielkie-ul.tarnowska-kosciol49","bs_name":"Koszyce Wielkie - ul. Tarnowska - Kościół 49","bs_lng":"20.9487","bs_lat":"49.9858","bs_destinations":"W. Ostrębowska p. Zgłobice, W. Ostrębowska","bs_destinations_old":"W. Ostrębowska p. Zgłobice, W. Ostrębowska"},
{"bs_id":"552","bs_search_name":"koszycewielkie-ul.tarnowska-szklarniowa47","bs_name":"Koszyce Wielkie - ul. Tarnowska - Szklarniowa 47","bs_lng":"20.94598","bs_lat":"49.98077","bs_destinations":"W. Ostrębowska p. Zgłobice, W. Ostrębowska","bs_destinations_old":"W. Ostrębowska p. Zgłobice, W. Ostrębowska"},
{"bs_id":"553","bs_search_name":"koszycewielkie-ul.tarnowska-szkolna08","bs_name":"Koszyce Wielkie - ul. Tarnowska - Szkolna 08","bs_lng":"20.94622","bs_lat":"49.97443","bs_destinations":"W. Ostrębowska, Rychwałd","bs_destinations_old":"W. Ostrębowska, Rychwałd"},
{"bs_id":"554","bs_search_name":"koszycewielkie-ul.tarnowska-swierkowa45","bs_name":"Koszyce Wielkie - ul. Tarnowska - Świerkowa 45","bs_lng":"20.94629","bs_lat":"49.97464","bs_destinations":"W. Ostrębowska p. Zgłobice, Sikorskiego","bs_destinations_old":"W. Ostrębowska p. Zgłobice, Sikorskiego"},
{"bs_id":"555","bs_search_name":"koszycemale-ul.glowna-remiza43","bs_name":"Koszyce Małe - ul. Główna - Remiza 43","bs_lng":"20.94676","bs_lat":"49.96918","bs_destinations":"W. Ostrębowska p. Zgłobice, Sikorskiego","bs_destinations_old":"W. Ostrębowska p. Zgłobice, Sikorskiego"},
{"bs_id":"556","bs_search_name":"koszycemale-ul.glowna-szkola12","bs_name":"Koszyce Małe - ul. Główna - Szkoła 12","bs_lng":"20.94508","bs_lat":"49.96522","bs_destinations":"W. Ostrębowska, Rychwałd","bs_destinations_old":"W. Ostrębowska, Rychwałd"},
{"bs_id":"557","bs_search_name":"koszycemale-ul.glowna-szkola41","bs_name":"Koszyce Małe - ul. Główna - Szkoła 41","bs_lng":"20.9456","bs_lat":"49.96579","bs_destinations":"W. Ostrębowska p. Zgłobice, Sikorskiego","bs_destinations_old":"W. Ostrębowska p. Zgłobice, Sikorskiego"},
{"bs_id":"558","bs_search_name":"koszycemale-ul.wolska-glowna26","bs_name":"Koszyce Małe - ul. Wolska - Główna 26","bs_lng":"20.94054","bs_lat":"49.96147","bs_destinations":"W. Ostrębowska p. Zgłobice","bs_destinations_old":"W. Ostrębowska p. Zgłobice"},
{"bs_id":"561","bs_search_name":"tarnow,szpitalsw.lukasza01","bs_name":"Tarnów, Szpital Św. Łukasza 01","bs_lng":"21.03145","bs_lat":"50.01262","bs_destinations":"Szpital Św. Łukasza, Szp.Św.Łukasza p.Os.Kolejowe","bs_destinations_old":"Szpital Św. Łukasza, Szp.Św.Łukasza p.Os.Kolejowe"},
{"bs_id":"562","bs_search_name":"mickiewicza-szkola","bs_name":"MICKIEWICZA-SZKOŁA","bs_lng":"0","bs_lat":"0","bs_destinations":"","bs_destinations_old":""},
{"bs_id":"563","bs_search_name":"tarnow,mickiewicza02-teatr","bs_name":"Tarnów, Mickiewicza 02 - Teatr","bs_lng":"20.98745","bs_lat":"50.01561","bs_destinations":"","bs_destinations_old":""},
{"bs_id":"564","bs_search_name":"tarnow,szujskiego01-klikowska","bs_name":"Tarnów, Szujskiego 01 - Klikowska","bs_lng":"20.97775","bs_lat":"50.0151","bs_destinations":"Mościce, Jasna II","bs_destinations_old":"Mościce, Jasna II"},
{"bs_id":"565","bs_search_name":"tarnow,klikowska01-solidarnosci","bs_name":"Tarnów, Klikowska 01 - Solidarności","bs_lng":"20.97776","bs_lat":"50.01651","bs_destinations":"Park Wodny, Biała","bs_destinations_old":"Park Wodny, Biała"},
{"bs_id":"566","bs_search_name":"tarnow,solidarnosci04-grottgera","bs_name":"Tarnów, Solidarności 04 - Grottgera","bs_lng":"20.97942","bs_lat":"50.0154","bs_destinations":"Jodłówka","bs_destinations_old":"Jana Pawła II, Jasna II"},
{"bs_id":"567","bs_search_name":"tarnow,narutowicza01-wodna","bs_name":"Tarnów, Narutowicza 01 - Wodna","bs_lng":"20.98609","bs_lat":"50.0084","bs_destinations":"Jana Pawła II","bs_destinations_old":"Jana Pawła II"},
{"bs_id":"568","bs_search_name":"tarnow,kochanowskiego02-wiadukt","bs_name":"Tarnów, Kochanowskiego 02 - Wiadukt","bs_lng":"20.96331","bs_lat":"50.00597","bs_destinations":"Jodłówka","bs_destinations_old":"Jasna Gemini, Wałki Górówka p.Jodłówkę"},
{"bs_id":"569","bs_search_name":"tarnow,kochanowskiego03-chyszowska","bs_name":"Tarnów, Kochanowskiego 03 - Chyszowska","bs_lng":"20.95934","bs_lat":"50.00694","bs_destinations":"Jodłówka","bs_destinations_old":"Jasna Gemini, Wałki Górówka p.Jodłówkę"},
{"bs_id":"573","bs_search_name":"tarnow,krysztalowa04-petla","bs_name":"Tarnów, Kryształowa 04 - Pętla","bs_lng":"20.97503","bs_lat":"50.03915","bs_destinations":"Kryształowa HSG p.Fritar","bs_destinations_old":"Kryształowa HSG p.Fritar"},
{"bs_id":"576","bs_search_name":"tarnow,krzyska12-traktorowa","bs_name":"Tarnów, Krzyska 12 - Traktorowa","bs_lng":"20.99183","bs_lat":"50.04822","bs_destinations":"Wiśniowa, Łukowa p.Kolonię","bs_destinations_old":"Wiśniowa, Łukowa p.Kolonię"},
{"bs_id":"577","bs_search_name":"tarnow,krzyska14-bukowa","bs_name":"Tarnów, Krzyska 14 - Bukowa","bs_lng":"20.99097","bs_lat":"50.05216","bs_destinations":"Wiśniowa, Łukowa p.Kolonię","bs_destinations_old":"Wiśniowa, Łukowa p.Kolonię"},
{"bs_id":"578","bs_search_name":"tarnow,krzyska16-boisko","bs_name":"Tarnów, Krzyska 16 - Boisko","bs_lng":"20.98924","bs_lat":"50.0556","bs_destinations":"Wiśniowa, Łukowa p.Kolonię","bs_destinations_old":"Wiśniowa, Łukowa p.Kolonię"},
{"bs_id":"579","bs_search_name":"pawezow-wiadukta401","bs_name":"Pawęzów - Wiadukt A4 01","bs_lng":"20.98756","bs_lat":"50.0624","bs_destinations":"","bs_destinations_old":""},
{"bs_id":"580","bs_search_name":"tarnow,krzyska17-wisniowa","bs_name":"Tarnów, Krzyska 17 - Wiśniowa","bs_lng":"20.98876","bs_lat":"50.05885","bs_destinations":"Łukowa p.Kolonię","bs_destinations_old":"Łukowa p.Kolonię"},
{"bs_id":"581","bs_search_name":"tarnow,krzyska18-wisniowa","bs_name":"Tarnów, Krzyska 18 - Wiśniowa","bs_lng":"20.9885","bs_lat":"50.05787","bs_destinations":"Wiśniowa, Łukowa p.Kolonię","bs_destinations_old":"Wiśniowa, Łukowa p.Kolonię"},
{"bs_id":"590","bs_search_name":"tarnow,marszalka02","bs_name":"Tarnów, Marszałka 02","bs_lng":"20.99257","bs_lat":"50.02013","bs_destinations":"W. Ostrębowska p. Zgłobice, W. Ostrębowska","bs_destinations_old":"W. Ostrębowska p. Zgłobice, W. Ostrębowska"},
{"bs_id":"623","bs_search_name":"zglobice-ul.zglobicka-sloneczna11","bs_name":"Zgłobice - ul. Zgłobicka - Słoneczna 11","bs_lng":"20.90588","bs_lat":"49.97285","bs_destinations":"Szkotnik, W. Ostrębowska","bs_destinations_old":"Szkotnik, W. Ostrębowska"},
{"bs_id":"624","bs_search_name":"zglobice-ul.sloneczna-sklep02","bs_name":"Zgłobice - ul. Słoneczna - Sklep 02","bs_lng":"20.90223","bs_lat":"49.96929","bs_destinations":"Błonie obok Zajazdu","bs_destinations_old":"Błonie obok Zajazdu"},
{"bs_id":"625","bs_search_name":"zglobice-ul.sloneczna-sklep11","bs_name":"Zgłobice - ul. Słoneczna - Sklep 11","bs_lng":"20.90238","bs_lat":"49.96935","bs_destinations":"Szkotnik","bs_destinations_old":"Szkotnik"},
{"bs_id":"630","bs_search_name":"blonie-naftobudowa09","bs_name":"Błonie - Naftobudowa 09","bs_lng":"20.89992","bs_lat":"49.96607","bs_destinations":"Szkotnik","bs_destinations_old":"Szkotnik"},
{"bs_id":"631","bs_search_name":"blonie-las06","bs_name":"Błonie - Las 06","bs_lng":"20.90311","bs_lat":"49.96175","bs_destinations":"Błonie obok Zajazdu","bs_destinations_old":"Błonie obok Zajazdu"},
{"bs_id":"632","bs_search_name":"blonie-las07","bs_name":"Błonie - Las 07","bs_lng":"20.90317","bs_lat":"49.96184","bs_destinations":"Szkotnik","bs_destinations_old":"Szkotnik"},
{"bs_id":"633","bs_search_name":"porebaradlna-szkola133","bs_name":"Poręba Radlna - Szkoła 133","bs_lng":"20.99324","bs_lat":"49.95904","bs_destinations":"Piotrkowice","bs_destinations_old":"Piotrkowice"},
{"bs_id":"634","bs_search_name":"porebaradlna-petla129","bs_name":"Poręba Radlna -Pętla 129","bs_lng":"21.00574","bs_lat":"49.95518","bs_destinations":"Piotrkowice","bs_destinations_old":"Piotrkowice"},
{"bs_id":"650","bs_search_name":"tarnow,klikowska18-klikowai","bs_name":"Tarnów, Klikowska 18 - Klikowa I","bs_lng":"20.93577","bs_lat":"50.04266","bs_destinations":"Jasna II","bs_destinations_old":"Jasna II"},
{"bs_id":"651","bs_search_name":"tarnow,klikowska20-granicamiasta","bs_name":"Tarnów, Klikowska 20 - Granica miasta","bs_lng":"20.93088","bs_lat":"50.04108","bs_destinations":"Jasna II","bs_destinations_old":"Jasna II"},
{"bs_id":"652","bs_search_name":"biala.","bs_name":"Biała.","bs_lng":"20.92512","bs_lat":"50.04115","bs_destinations":"","bs_destinations_old":""},
{"bs_id":"660","bs_search_name":"tarnow,gorasw.marcina01","bs_name":"Tarnów, Góra Św. Marcina 01","bs_lng":"21.00029","bs_lat":"49.99397","bs_destinations":"Góra Św.Marcina, Góra Św. Marcina","bs_destinations_old":"Góra Św.Marcina, Góra Św. Marcina"},
{"bs_id":"661","bs_search_name":"tarnowskich-tuwima","bs_name":"Tarnowskich- Tuwima","bs_lng":"0","bs_lat":"0","bs_destinations":"","bs_destinations_old":""},
{"bs_id":"662","bs_search_name":"tarnow,zbylitowska03-czarnadroga","bs_name":"Tarnów, Zbylitowska 03 - Czarna Droga","bs_lng":"20.91021","bs_lat":"50.00093","bs_destinations":"Szkotnik","bs_destinations_old":"Szkotnik"},
{"bs_id":"663","bs_search_name":"tarnow,czarnadroga05-cmentarz","bs_name":"Tarnów, Czarna Droga 05 - Cmentarz","bs_lng":"20.91902","bs_lat":"49.99871","bs_destinations":"Szkotnik","bs_destinations_old":"Szkotnik"},
{"bs_id":"664","bs_search_name":"tarnow,czarnadroga03-ludowa","bs_name":"Tarnów, Czarna Droga 03 - Ludowa","bs_lng":"20.93098","bs_lat":"49.99725","bs_destinations":"Mościce p.Armii Krajowej","bs_destinations_old":"Mościce p.Armii Krajowej"},
{"bs_id":"665","bs_search_name":"tarnow,szujskiego04-moscickiego","bs_name":"Tarnów, Szujskiego 04 - Mościckiego","bs_lng":"20.96347","bs_lat":"50.0145","bs_destinations":"Jana Pawła II, Park Wodny","bs_destinations_old":"Jana Pawła II, Park Wodny"},
{"bs_id":"666","bs_search_name":"tarnow,szujskiego02-wilsona","bs_name":"Tarnów, Szujskiego 02 - Wilsona","bs_lng":"20.97088","bs_lat":"50.01477","bs_destinations":"Jana Pawła II, Park Wodny","bs_destinations_old":"Jana Pawła II, Park Wodny"},
{"bs_id":"671","bs_search_name":"pawezow-szkola12","bs_name":"Pawęzów - Szkoła 12","bs_lng":"20.98574","bs_lat":"50.07138","bs_destinations":"Łukowa p.Kolonię","bs_destinations_old":"Łukowa p.Kolonię"},
{"bs_id":"672","bs_search_name":"pawezow07","bs_name":"Pawęzów 07","bs_lng":"20.98561","bs_lat":"50.074","bs_destinations":"Łukowa p.Kolonię","bs_destinations_old":"Łukowa p.Kolonię"},
{"bs_id":"673","bs_search_name":"pawezow10","bs_name":"Pawęzów 10","bs_lng":"20.98552","bs_lat":"50.07389","bs_destinations":"Łukowa p.Kolonię","bs_destinations_old":"Łukowa p.Kolonię"},
{"bs_id":"674","bs_search_name":"smigno07","bs_name":"Śmigno 07","bs_lng":"20.98682","bs_lat":"50.07826","bs_destinations":"Łukowa p.Kolonię","bs_destinations_old":"Łukowa p.Kolonię"},
{"bs_id":"675","bs_search_name":"radlna-przedszkole07","bs_name":"Radlna - Przedszkole 07","bs_lng":"20.9756","bs_lat":"49.96385","bs_destinations":"Pułaskiego p.Zawadę","bs_destinations_old":"Pułaskiego p.Zawadę"},
{"bs_id":"676","bs_search_name":"radlna-budynekwielofunkcyjny05","bs_name":"Radlna - Budynek Wielofunkcyjny 05","bs_lng":"20.97379","bs_lat":"49.9621","bs_destinations":"Pułaskiego p.Zawadę","bs_destinations_old":"Pułaskiego p.Zawadę"},
{"bs_id":"677","bs_search_name":"blonie-szkola05","bs_name":"Błonie - Szkoła 05","bs_lng":"20.90149","bs_lat":"49.95635","bs_destinations":"Szkotnik","bs_destinations_old":"Szkotnik"},
{"bs_id":"678","bs_search_name":"swiebodzin-kosciol03","bs_name":"Świebodzin - Kościół 03","bs_lng":"20.96379","bs_lat":"49.95754","bs_destinations":"Pułaskiego p.Zawadę","bs_destinations_old":"Pułaskiego p.Zawadę"},
{"bs_id":"679","bs_search_name":"swiebodzin-klokowapkp01","bs_name":"Świebodzin - Kłokowa PKP 01","bs_lng":"20.95735","bs_lat":"49.953","bs_destinations":"Pułaskiego p.Zawadę","bs_destinations_old":"Pułaskiego p.Zawadę"},
{"bs_id":"682","bs_search_name":"zbylitowskagora-cmentarz08","bs_name":"Zbylitowska Góra - Cmentarz 08","bs_lng":"20.90319","bs_lat":"49.98222","bs_destinations":"Szkotnik, Błonie p.Zb.Górę","bs_destinations_old":"Szkotnik, Błonie p.Zb.Górę"},
{"bs_id":"683","bs_search_name":"zbylitowskagora-szkola04","bs_name":"Zbylitowska Góra - Szkoła 04","bs_lng":"20.90182","bs_lat":"49.99005","bs_destinations":"Szkotnik","bs_destinations_old":"Szkotnik"},
{"bs_id":"700","bs_search_name":"tarnow,starodabrowska10-fatimskiej","bs_name":"Tarnów, Starodąbrowska 10 - Fatimskiej","bs_lng":"20.99803","bs_lat":"50.02765","bs_destinations":"Os.Zbylitowska Góra, Os.Koszyckie p.Os.Kolejowe","bs_destinations_old":"Os.Zbylitowska Góra, Os.Koszyckie p.Os.Kolejowe"},
{"bs_id":"701","bs_search_name":"blonie-nowodabrowska","bs_name":"Błonie - Nowodąbrowska","bs_lng":"0","bs_lat":"0","bs_destinations":"","bs_destinations_old":""},
{"bs_id":"704","bs_search_name":"tarnow,okrezna04-bracisakow","bs_name":"Tarnów, Okrężna 04 - Braci Saków","bs_lng":"21.01226","bs_lat":"50.00735","bs_destinations":"Jana Pawła II","bs_destinations_old":"Jana Pawła II"},
{"bs_id":"705","bs_search_name":"tarnow,okrezna02-tarnospin","bs_name":"Tarnów, Okrężna 02 - Tarnospin","bs_lng":"21.02043","bs_lat":"50.01227","bs_destinations":"Jana Pawła II","bs_destinations_old":"Jana Pawła II"},
{"bs_id":"713","bs_search_name":"lisiagora(l121+863)","bs_name":"Lisia Góra (L 121+863)","bs_lng":"21.02561","bs_lat":"50.08386","bs_destinations":"","bs_destinations_old":""},
{"bs_id":"726","bs_search_name":"wolarzedzinska-domstrazaka27","bs_name":"Wola Rzędzińska - Dom Strażaka 27","bs_lng":"21.10849","bs_lat":"50.04661","bs_destinations":"Szkotnik","bs_destinations_old":"Szkotnik"},
{"bs_id":"727","bs_search_name":"tarnow,starodabrowska08-domseniora","bs_name":"Tarnów, Starodąbrowska 08 - Dom Seniora","bs_lng":"20.99775","bs_lat":"50.02416","bs_destinations":"Os.Zbylitowska Góra, Os.Koszyckie p.Os.Kolejowe","bs_destinations_old":"Os.Zbylitowska Góra, Os.Koszyckie p.Os.Kolejowe"},
{"bs_id":"728","bs_search_name":"smigno-petla05","bs_name":"Śmigno - Pętla 05","bs_lng":"20.99661","bs_lat":"50.07992","bs_destinations":"Łukowa p.Kolonię","bs_destinations_old":"Łukowa p.Kolonię"},
{"bs_id":"729","bs_search_name":"smigno-nagorze03","bs_name":"Śmigno - Na Górze 03","bs_lng":"21.00579","bs_lat":"50.08162","bs_destinations":"Szkotnik p.Kolonię","bs_destinations_old":"Szkotnik p.Kolonię"},
{"bs_id":"730","bs_search_name":"lisiagora-granica08","bs_name":"Lisia Góra - Granica 08","bs_lng":"21.01072","bs_lat":"50.08292","bs_destinations":"Lisia Góra obok szkoły","bs_destinations_old":"Lisia Góra obok szkoły"},
{"bs_id":"731","bs_search_name":"lisiagora-granica01","bs_name":"Lisia Góra - Granica 01","bs_lng":"21.01073","bs_lat":"50.08295","bs_destinations":"Szkotnik p.Kolonię","bs_destinations_old":"Szkotnik p.Kolonię"},
{"bs_id":"732","bs_search_name":"zbylitowskagora-ujeciewody02","bs_name":"Zbylitowska Góra - Ujęcie Wody 02","bs_lng":"20.90404","bs_lat":"49.99599","bs_destinations":"Szkotnik","bs_destinations_old":"Szkotnik"},
{"bs_id":"750","bs_search_name":"tarnow,matkibozejfatimskiej01-curie","bs_name":"Tarnów, Matki Bożej Fatimskiej 01 - Curie","bs_lng":"20.99295","bs_lat":"50.01747","bs_destinations":"Jana Pawła II, Jasna II","bs_destinations_old":"Jana Pawła II, Jasna II"},
{"bs_id":"752","bs_search_name":"jodlowka-walkiszpicii","bs_name":"Jodłówka-Wałki Szpic II","bs_lng":"21.15791","bs_lat":"50.05949","bs_destinations":"","bs_destinations_old":""},
{"bs_id":"754","bs_search_name":"jodlowka-walki-szpic03","bs_name":"Jodłówka - Wałki - Szpic 03","bs_lng":"21.14972","bs_lat":"50.05687","bs_destinations":"Wałki Jodłówka p.Szpic","bs_destinations_old":"Wałki Jodłówka p.Szpic"},
{"bs_id":"755","bs_search_name":"jodlowka-walki-szkola15","bs_name":"Jodłówka - Wałki - Szkoła 15","bs_lng":"21.1414","bs_lat":"50.05442","bs_destinations":"Szkotnik","bs_destinations_old":"Szkotnik"},
{"bs_id":"756","bs_search_name":"tarnow,sloneczna10-orkana","bs_name":"Tarnów, Słoneczna 10 - Orkana","bs_lng":"21.01249","bs_lat":"50.01496","bs_destinations":"Jana Pawła II, Os.Koszyckie p.Os.Kolejowe","bs_destinations_old":"Jana Pawła II, Os.Koszyckie p.Os.Kolejowe"},
{"bs_id":"759","bs_search_name":"lekawka(skrzyzowanie)125","bs_name":"Łękawka (skrzyżowanie) 125","bs_lng":"21.01538","bs_lat":"49.94558","bs_destinations":"Piotrkowice","bs_destinations_old":"Piotrkowice"},
{"bs_id":"760","bs_search_name":"lekawka-petla24a","bs_name":"Łękawka - Pętla 24A","bs_lng":"21.01347","bs_lat":"49.93438","bs_destinations":"Piotrkowice","bs_destinations_old":"Piotrkowice"},
{"bs_id":"761","bs_search_name":"radlna-nagorach09","bs_name":"Radlna - Na Górach 09","bs_lng":"20.98226","bs_lat":"49.96519","bs_destinations":"Pułaskiego p.Zawadę","bs_destinations_old":"Pułaskiego p.Zawadę"},
{"bs_id":"771","bs_search_name":"tarnow,romanowicza03-kasprowicza","bs_name":"Tarnów, Romanowicza 03 - Kasprowicza","bs_lng":"20.97918","bs_lat":"50.0228","bs_destinations":"Jasna II, Pułaskiego","bs_destinations_old":"Jasna II, Pułaskiego"},
{"bs_id":"772","bs_search_name":"tarnow,romanowicza08-jastruna","bs_name":"Tarnów, Romanowicza 08 - Jastruna","bs_lng":"20.97574","bs_lat":"50.02349","bs_destinations":"Park Wodny, Kryształowa HSG p.Fritar","bs_destinations_old":"Park Wodny, Kryształowa HSG p.Fritar"},
{"bs_id":"773","bs_search_name":"tarnow,romanowicza05-brandstaettera","bs_name":"Tarnów, Romanowicza 05 -Brandstaettera","bs_lng":"20.97241","bs_lat":"50.02428","bs_destinations":"Jasna II, Pułaskiego","bs_destinations_old":"Jasna II, Pułaskiego"},
{"bs_id":"774","bs_search_name":"tarnow,romanowicza01-szkola","bs_name":"Tarnów, Romanowicza 01 - Szkoła","bs_lng":"20.98372","bs_lat":"50.02183","bs_destinations":"Jasna II, Kapro","bs_destinations_old":"Jasna II, Kapro"},
{"bs_id":"775","bs_search_name":"tarnow,parkwodny01","bs_name":"Tarnów, Park Wodny 01","bs_lng":"20.98833","bs_lat":"50.02347","bs_destinations":"Jasna II","bs_destinations_old":"Jasna II"},
{"bs_id":"776","bs_search_name":"jodlowka-walki-gorowka13","bs_name":"Jodłówka - Wałki - Górówka 13","bs_lng":"21.13888","bs_lat":"50.06046","bs_destinations":"Szkotnik","bs_destinations_old":"Szkotnik"},
{"bs_id":"777","bs_search_name":"jodlowka-walki-dol09","bs_name":"Jodłówka - Wałki - Dół 09","bs_lng":"21.13489","bs_lat":"50.06693","bs_destinations":"Szkotnik","bs_destinations_old":"Szkotnik"},
{"bs_id":"779","bs_search_name":"lekawka-kosciol30","bs_name":"Łękawka - Kościół 30","bs_lng":"21.02989","bs_lat":"49.94725","bs_destinations":"Piotrkowice","bs_destinations_old":"Piotrkowice"},
{"bs_id":"780","bs_search_name":"zawada-granica05","bs_name":"Zawada - Granica 05","bs_lng":"20.99995","bs_lat":"49.97923","bs_destinations":"Pułaskiego, Pułaskiego p.Zawadę","bs_destinations_old":"Pułaskiego, Pułaskiego p.Zawadę"},
{"bs_id":"781","bs_search_name":"zawada-babel03","bs_name":"Zawada - Bąbel 03","bs_lng":"21.01011","bs_lat":"49.98085","bs_destinations":"Pułaskiego, Pułaskiego p.Zawadę","bs_destinations_old":"Pułaskiego, Pułaskiego p.Zawadę"},
{"bs_id":"782","bs_search_name":"zawada-szkola01","bs_name":"Zawada - Szkoła 01","bs_lng":"21.01406","bs_lat":"49.97906","bs_destinations":"Pułaskiego, Pułaskiego p.Zawadę","bs_destinations_old":"Pułaskiego, Pułaskiego p.Zawadę"},
{"bs_id":"783","bs_search_name":"zawada-petla08","bs_name":"Zawada - Pętla 08","bs_lng":"21.01168","bs_lat":"49.97327","bs_destinations":"Pułaskiego, Pułaskiego p.Zawadę","bs_destinations_old":"Pułaskiego, Pułaskiego p.Zawadę"},
{"bs_id":"793","bs_search_name":"jodlowka-walki-gorowkazachodnia05","bs_name":"Jodłówka - Wałki - Górówka Zachodnia 05","bs_lng":"21.11279","bs_lat":"50.05895","bs_destinations":"Wałki Jodłówka p.Górówkę","bs_destinations_old":"Wałki Jodłówka p.Górówkę"},
{"bs_id":"794","bs_search_name":"wolarzedzinska-ferma06","bs_name":"Wola Rzędzińska - Ferma 06","bs_lng":"21.10226","bs_lat":"50.05282","bs_destinations":"Szkotnik","bs_destinations_old":"Szkotnik"},
{"bs_id":"797","bs_search_name":"blonie-granica03","bs_name":"Błonie - Granica 03","bs_lng":"20.90267","bs_lat":"49.94843","bs_destinations":"Szkotnik","bs_destinations_old":"Szkotnik"},
{"bs_id":"798","bs_search_name":"szczepanowice-zatoka26","bs_name":"Szczepanowice - Zatoka 26","bs_lng":"20.8996","bs_lat":"49.94668","bs_destinations":"Szkotnik","bs_destinations_old":"Szkotnik"},
{"bs_id":"805","bs_search_name":"tarnow,orkana05-petla","bs_name":"Tarnów, Orkana 05 - Pętla","bs_lng":"21.02791","bs_lat":"50.01937","bs_destinations":"Jodłówka","bs_destinations_old":"Wałki Jodłówka, Wola Rzędzińska"},
{"bs_id":"806","bs_search_name":"tarnow,orkana05-petla","bs_name":"Tarnów, Orkana 05 - Pętla","bs_lng":"21.02791","bs_lat":"50.01939","bs_destinations":"","bs_destinations_old":""},
{"bs_id":"809","bs_search_name":"pawezow-granica03","bs_name":"Pawęzów - Granica 03","bs_lng":"20.98433","bs_lat":"50.06693","bs_destinations":"Łukowa p.Kolonię","bs_destinations_old":"Łukowa p.Kolonię"},
{"bs_id":"810","bs_search_name":"pawezow-granica14","bs_name":"Pawęzów - Granica 14","bs_lng":"20.98405","bs_lat":"50.06671","bs_destinations":"Łukowa p.Kolonię","bs_destinations_old":"Łukowa p.Kolonię"},
{"bs_id":"811","bs_search_name":"tarnow,sloneczna03-starodabrowska","bs_name":"Tarnów, Słoneczna 03 - Starodąbrowska","bs_lng":"20.9976","bs_lat":"50.01804","bs_destinations":"Jana Pawła II, Jasna Gemini","bs_destinations_old":"Jana Pawła II, Jasna Gemini"},
{"bs_id":"812","bs_search_name":"tarnow,sloneczna05-szkola","bs_name":"Tarnów, Słoneczna 05 - Szkoła","bs_lng":"21.00596","bs_lat":"50.0171","bs_destinations":"Jana Pawła II, Jasna Gemini","bs_destinations_old":"Jana Pawła II, Jasna Gemini"},
{"bs_id":"813","bs_search_name":"tarnow,janapawlaii05-os.zieloneii","bs_name":"Tarnów, Jana Pawła II 05 - Os. Zielone II","bs_lng":"21.01252","bs_lat":"50.02342","bs_destinations":"Jana Pawła II, Jasna Gemini","bs_destinations_old":"Jana Pawła II, Jasna Gemini"},
{"bs_id":"814","bs_search_name":"tarnow,janapawlaii06-os.westerplatte","bs_name":"Tarnów, Jana Pawła II 06-Os.Westerplatte","bs_lng":"21.01287","bs_lat":"50.02873","bs_destinations":"Mościce, Kochanowskiego Chyszowska","bs_destinations_old":"Mościce, Kochanowskiego Chyszowska"},
{"bs_id":"815","bs_search_name":"tarnow,wojskapolskiego04-os.jasnaii","bs_name":"Tarnów, Wojska Polskiego 04 - Os. Jasna II","bs_lng":"21.00492","bs_lat":"50.02425","bs_destinations":"Park Wodny, Biała","bs_destinations_old":"Park Wodny, Biała"},
{"bs_id":"816","bs_search_name":"tarnow,janapawlaii09-westerplatte","bs_name":"Tarnów, Jana Pawła II 09 - Westerplatte","bs_lng":"21.013","bs_lat":"50.03086","bs_destinations":"Os.Koszyckie p.Os.Kolejowe, Jasna Gemini","bs_destinations_old":"Os.Koszyckie p.Os.Kolejowe, Jasna Gemini"},
{"bs_id":"819","bs_search_name":"zbylitowskagora-buczyna17","bs_name":"Zbylitowska Góra - Buczyna 17","bs_lng":"20.9027","bs_lat":"49.98611","bs_destinations":"Zbylitowska Góra Szkoła, Błonie p.Zb.Górę","bs_destinations_old":"Zbylitowska Góra Szkoła, Błonie p.Zb.Górę"},
{"bs_id":"820","bs_search_name":"tarnow,ivliceum01","bs_name":"Tarnów, IV Liceum 01","bs_lng":"20.92751","bs_lat":"49.99923","bs_destinations":"","bs_destinations_old":""},
{"bs_id":"821","bs_search_name":"zajezdniampk.","bs_name":"Zajezdnia MPK.","bs_lng":"21.02636","bs_lat":"50.01233","bs_destinations":"","bs_destinations_old":""},
{"bs_id":"827","bs_search_name":"tarnow,zbylitowska01-kosciol","bs_name":"Tarnów, Zbylitowska 01 - Kościół","bs_lng":"20.9208","bs_lat":"50.00925","bs_destinations":"Szkotnik, Mościce p.Chemiczną","bs_destinations_old":"Szkotnik, Mościce p.Chemiczną"},
{"bs_id":"828","bs_search_name":"tarnow,sadowa03-fritar","bs_name":"Tarnów, Sadowa 03 - Fritar","bs_lng":"20.96446","bs_lat":"50.04044","bs_destinations":"Fritar","bs_destinations_old":"Fritar"},
{"bs_id":"829","bs_search_name":"tarnow,sadowa03-fritar","bs_name":"Tarnów, Sadowa 03 - Fritar","bs_lng":"20.96442","bs_lat":"50.04042","bs_destinations":"Kryształowa HSG p.Fritar, Szpital Św. Łukasza","bs_destinations_old":"Kryształowa HSG p.Fritar, Szpital Św. Łukasza"},
{"bs_id":"830","bs_search_name":"tuwima-zamkowa","bs_name":"TUWIMA-ZAMKOWA","bs_lng":"0","bs_lat":"0","bs_destinations":"","bs_destinations_old":""},
{"bs_id":"831","bs_search_name":"tuwima-zamkowa.","bs_name":"Tuwima-Zamkowa.","bs_lng":"0","bs_lat":"0","bs_destinations":"","bs_destinations_old":""},
{"bs_id":"832","bs_search_name":"tarnow,krakowska03-pl.popieluszki","bs_name":"Tarnów, Krakowska 03 - Pl. Popiełuszki","bs_lng":"20.97583","bs_lat":"50.00835","bs_destinations":"Pułaskiego","bs_destinations_old":"Pułaskiego"},
{"bs_id":"833","bs_search_name":"smigno-petla04","bs_name":"Śmigno - Pętla 04","bs_lng":"20.99761","bs_lat":"50.08012","bs_destinations":"","bs_destinations_old":""},
{"bs_id":"834","bs_search_name":"tarnowskich-lotnicza","bs_name":"Tarnowskich - Lotnicza","bs_lng":"0","bs_lat":"0","bs_destinations":"","bs_destinations_old":""},
{"bs_id":"835","bs_search_name":"tarnowskich-lotnicza","bs_name":"Tarnowskich- Lotnicza","bs_lng":"20.99705","bs_lat":"50.00133","bs_destinations":"","bs_destinations_old":""},
{"bs_id":"840","bs_search_name":"lisiagora","bs_name":"Lisia  Góra","bs_lng":"21.02546","bs_lat":"50.08309","bs_destinations":"","bs_destinations_old":""},
{"bs_id":"845","bs_search_name":"tarnow,pulaskiego01-osiedle","bs_name":"Tarnów, Pułaskiego 01 - Osiedle","bs_lng":"20.97347","bs_lat":"50.01338","bs_destinations":"","bs_destinations_old":""},
{"bs_id":"856","bs_search_name":"wolarzedzinska-kapliczka12","bs_name":"Wola Rzędzińska - Kapliczka 12","bs_lng":"21.08086","bs_lat":"50.03957","bs_destinations":"Wałki Jodłówka","bs_destinations_old":"Wałki Jodłówka"},
{"bs_id":"857","bs_search_name":"wolarzedzinska-kapliczka35","bs_name":"Wola Rzędzińska - Kapliczka 35","bs_lng":"21.07969","bs_lat":"50.03964","bs_destinations":"Szkotnik","bs_destinations_old":"Szkotnik"},
{"bs_id":"858","bs_search_name":"tarnow,spokojna03-krzyska","bs_name":"Tarnów, Spokojna 03 - Krzyska","bs_lng":"20.99295","bs_lat":"50.03575","bs_destinations":"Mościce","bs_destinations_old":"Mościce"},
{"bs_id":"859","bs_search_name":"tarnow,spokojna05-mpec","bs_name":"Tarnów, Spokojna 05 - MPEC","bs_lng":"20.98441","bs_lat":"50.03595","bs_destinations":"Mościce","bs_destinations_old":"Mościce"},
{"bs_id":"860","bs_search_name":"tarnow,spokojna04-piaskowa","bs_name":"Tarnów, Spokojna 04 - Piaskowa","bs_lng":"20.984","bs_lat":"50.03569","bs_destinations":"Jasna II","bs_destinations_old":"Jasna II"},
{"bs_id":"861","bs_search_name":"tarnow,wyszynskiego01-klikowska","bs_name":"Tarnów, Wyszyńskiego 01-Klikowska","bs_lng":"20.96588","bs_lat":"50.02933","bs_destinations":"Mościce","bs_destinations_old":"Mościce"},
{"bs_id":"862","bs_search_name":"tarnow,elektryczna05-piaskowa","bs_name":"Tarnów, Elektryczna 05 - Piaskowa","bs_lng":"20.9809","bs_lat":"50.03515","bs_destinations":"Pułaskiego, Fritar","bs_destinations_old":"Pułaskiego, Fritar"},
{"bs_id":"863","bs_search_name":"tarnow,spokojna02-cmentarz","bs_name":"Tarnów, Spokojna 02 - Cmentarz","bs_lng":"20.9948","bs_lat":"50.03544","bs_destinations":"Jasna II, Wiśniowa","bs_destinations_old":"Jasna II, Wiśniowa"},
{"bs_id":"864","bs_search_name":"moscickiego-czysta","bs_name":"MOŚCICKIEGO- CZYSTA","bs_lng":"0","bs_lat":"0","bs_destinations":"","bs_destinations_old":""},
{"bs_id":"865","bs_search_name":"tarnow,moscice-plac01","bs_name":"Tarnów, Mościce - Plac 01","bs_lng":"20.92383","bs_lat":"50.01503","bs_destinations":"Os.Zbylitowska Góra, Szkotnik","bs_destinations_old":"Os.Zbylitowska Góra, Szkotnik"},
{"bs_id":"866","bs_search_name":"tarnow,moscice-plac01","bs_name":"Tarnów, Mościce - Plac 01","bs_lng":"20.92486","bs_lat":"50.01525","bs_destinations":"Mościce","bs_destinations_old":"Mościce"},
{"bs_id":"867","bs_search_name":"elektryczna-zakladymiesne(p)","bs_name":"ELEKTRYCZNA-ZAKŁADY MIĘSNE (P)","bs_lng":"0","bs_lat":"0","bs_destinations":"","bs_destinations_old":""},
{"bs_id":"868","bs_search_name":"tarnow,boleslawachrobrego01","bs_name":"Tarnów, Bolesława Chrobrego 01","bs_lng":"20.95223","bs_lat":"49.98955","bs_destinations":"Os.Koszyckie p.Os.Kolejowe","bs_destinations_old":"Os.Koszyckie p.Os.Kolejowe"},
{"bs_id":"870","bs_search_name":"tarnow,moscice-plac01","bs_name":"Tarnów, Mościce - Plac 01","bs_lng":"20.92437","bs_lat":"50.01527","bs_destinations":"","bs_destinations_old":""},
{"bs_id":"871","bs_search_name":"tarnow,moscice-plac01","bs_name":"Tarnów, Mościce - Plac 01","bs_lng":"20.92437","bs_lat":"50.01527","bs_destinations":"","bs_destinations_old":""},
{"bs_id":"872","bs_search_name":"tarnow,moscice-plac01","bs_name":"Tarnów, Mościce - Plac 01","bs_lng":"20.92437","bs_lat":"50.01527","bs_destinations":"Jana Pawła II, Jasna II","bs_destinations_old":"Jana Pawła II, Jasna II"},
{"bs_id":"873","bs_search_name":"tarnow,moscice-plac01","bs_name":"Tarnów, Mościce - Plac 01","bs_lng":"20.92437","bs_lat":"50.01527","bs_destinations":"","bs_destinations_old":""},
{"bs_id":"879","bs_search_name":"tarnow,czerwona04-brzozowa","bs_name":"Tarnów, Czerwona 04 - Brzozowa","bs_lng":"20.93402","bs_lat":"49.9998","bs_destinations":"","bs_destinations_old":""},
{"bs_id":"880","bs_search_name":"jodlowka-walki-zapole07","bs_name":"Jodłówka - Wałki - Zapole 07","bs_lng":"21.12384","bs_lat":"50.06137","bs_destinations":"Wałki Jodłówka p.Górówkę","bs_destinations_old":"Wałki Jodłówka p.Górówkę"},
{"bs_id":"881","bs_search_name":"jodlowka-walki-zapole02","bs_name":"Jodłówka - Wałki - Zapole 02","bs_lng":"21.12374","bs_lat":"50.06149","bs_destinations":"Wałki Górówka p.Jodłówkę","bs_destinations_old":"Wałki Górówka p.Jodłówkę"},
{"bs_id":"882","bs_search_name":"porebaradlna-petla129","bs_name":"Poręba Radlna - Pętla 129","bs_lng":"21.0058","bs_lat":"49.95506","bs_destinations":"","bs_destinations_old":""},
{"bs_id":"883","bs_search_name":"zglobice-ul.zbylitowska10","bs_name":"Zgłobice - ul. Zbylitowska 10","bs_lng":"20.90406","bs_lat":"49.97887","bs_destinations":"Szkotnik, Błonie p.Zb.Górę","bs_destinations_old":"Szkotnik, Błonie p.Zb.Górę"},
{"bs_id":"884","bs_search_name":"jodlowka-walki-szkola02","bs_name":"Jodłówka - Wałki - SZKOŁA`02","bs_lng":"21.14199","bs_lat":"50.05438","bs_destinations":"Wałki Jodłówka p.Szpic","bs_destinations_old":"Wałki Jodłówka p.Szpic"},
{"bs_id":"885","bs_search_name":"jodlowka-walki-szpici04","bs_name":"Jodłówka - Wałki - Szpic I 04","bs_lng":"21.14992","bs_lat":"50.05686","bs_destinations":"Wałki Jodłówka p.Szpic","bs_destinations_old":"Wałki Jodłówka p.Szpic"},
{"bs_id":"886","bs_search_name":"jodlowka-walki-szpici04","bs_name":"Jodłówka - Wałki - Szpic I 04","bs_lng":"21.14994","bs_lat":"50.05687","bs_destinations":"Szkotnik p.Szpic","bs_destinations_old":"Szkotnik p.Szpic"},
{"bs_id":"887","bs_search_name":"jodlowka-walki-szpici04","bs_name":"Jodłówka - Wałki - Szpic I 04","bs_lng":"21.14989","bs_lat":"50.05695","bs_destinations":"","bs_destinations_old":""},
{"bs_id":"888","bs_search_name":"tarnow,szujskiego05-osiedle","bs_name":"Tarnów, Szujskiego 05 - Osiedle","bs_lng":"20.96359","bs_lat":"50.01457","bs_destinations":"Jasna II","bs_destinations_old":"Jasna II"},
{"bs_id":"889","bs_search_name":"tarnow,lwowska11-cmentarz","bs_name":"Tarnów, Lwowska 11 - Cmentarz","bs_lng":"21.03048","bs_lat":"50.01229","bs_destinations":"Os.Nauczycielskie","bs_destinations_old":"Os.Nauczycielskie"},
{"bs_id":"890","bs_search_name":"lwowska-szpital","bs_name":"Lwowska-Szpital","bs_lng":"21.03361","bs_lat":"50.0121","bs_destinations":"","bs_destinations_old":""},
{"bs_id":"916","bs_search_name":"koszycemale-ul.wolska03","bs_name":"Koszyce Małe - ul. Wolska 03","bs_lng":"20.9333","bs_lat":"49.9628","bs_destinations":"W. Ostrębowska","bs_destinations_old":"W. Ostrębowska"},
{"bs_id":"917","bs_search_name":"koszycemale-ul.wolska-deby07","bs_name":"Koszyce Małe - ul. Wolska - Dęby 07","bs_lng":"20.91812","bs_lat":"49.96446","bs_destinations":"W. Ostrębowska","bs_destinations_old":"W. Ostrębowska"},
{"bs_id":"919","bs_search_name":"tarnow,lwowska13-karpacka","bs_name":"Tarnów, Lwowska 13 - Karpacka","bs_lng":"21.04159","bs_lat":"50.01133","bs_destinations":"Os.Nauczycielskie","bs_destinations_old":"Os.Nauczycielskie"},
{"bs_id":"920","bs_search_name":"tarnow,lwowska14-karpacka","bs_name":"Tarnów, Lwowska 14 - Karpacka","bs_lng":"21.04166","bs_lat":"50.01138","bs_destinations":"Do Huty PR","bs_destinations_old":"Do Huty PR"},
{"bs_id":"924","bs_search_name":"walki-lekarz","bs_name":"WAŁKI-LEKARZ","bs_lng":"0","bs_lat":"0","bs_destinations":"","bs_destinations_old":""},
{"bs_id":"925","bs_search_name":"jodlowka-walki-lekarz19","bs_name":"Jodłówka - Wałki - Lekarz 19","bs_lng":"21.13517","bs_lat":"50.04994","bs_destinations":"Szkotnik","bs_destinations_old":"Szkotnik"},
{"bs_id":"926","bs_search_name":"koszycemale-ul.wolska-glowna01","bs_name":"Koszyce Małe - ul. Wolska - Główna 01","bs_lng":"20.94049","bs_lat":"49.96151","bs_destinations":"W. Ostrębowska","bs_destinations_old":"W. Ostrębowska"},
{"bs_id":"927","bs_search_name":"koszycemale-ul.wolska-glowna26","bs_name":"Koszyce Małe - ul. Wolska - Główna 26","bs_lng":"20.94055","bs_lat":"49.96149","bs_destinations":"","bs_destinations_old":""},
{"bs_id":"928","bs_search_name":"wolarzedzinska-przejazdpkp02","bs_name":"Wola Rzędzińska - Przejazd PKP 02","bs_lng":"21.03714","bs_lat":"50.02412","bs_destinations":"Wałki Jodłówka, Wola Rzędzińska","bs_destinations_old":"Wałki Jodłówka, Wola Rzędzińska"},
{"bs_id":"929","bs_search_name":"wolarzedzinska-przejazdpkp45","bs_name":"Wola Rzędzińska - Przejazd PKP 45","bs_lng":"21.03785","bs_lat":"50.02461","bs_destinations":"Szkotnik, Góra Św.Marcina","bs_destinations_old":"Szkotnik, Góra Św.Marcina"},